Location Code	Real Property Asset Name	Installation Name	Owned or Leased	GSA Region	Street Address	City	State	Zip Code	Latitude	Longitude	Building Rentable Square Feet	Available Square Feet	Construction Date	Congressional District	Congressional District Representative Name	Building Status	Real Property Asset Type
AK0001	ANCHORAGE HISTORIC FEDERAL BUILDING	ANCHORAGE FEDERAL	F	10	605 W 4TH AVE	ANCHORAGE	AK	99501	61.2188715	-149.8944574	"91,223.04"	"30,433.21"	1939	0200	MARY SATTLER PELTOLA	Active	BUILDING
AK0005	KETCHIKAN FEDERAL BUILDING	KETCHIKAN FEDERAL	F	10	648 MISSION ST	KETCHIKAN	AK	99901	55.3415851	-131.6426876	"35,351.36"	"7,973.46"	1938	0200	MARY SATTLER PELTOLA	Active	BUILDING
AK0009	POST OFFICE AND CU H	NA	L	10	2ND ST	WRANGELL	AK	99929	56.4739490	-132.3881163	95.00	0.00	1941	0200	MARY SATTLER PELTOLA	Active	BUILDING
AK0013	HURFF A. SAUNDERS FB & ROBERT BOOCHEVER USCH	NA	F	10	709 W 9TH ST	JUNEAU	AK	99801	58.3013556	-134.4203474	"2,84,055.19"	"10,227.71"	1966	0200	MARY SATTLER PELTOLA	Active	BUILDING
AK0029	FAIRBANKS FEDERAL BUILDING	NA	F	10	101 12TH AVE	FAIRBANKS	AK	99701	64.8379103	-147.7067658	"1,00,277.77"	"10,626.58"	1977	0200	MARY SATTLER PELTOLA	Active	BUILDING
AK0031	ANCHORAGE NEW FEDERAL BLDG & JAMES M. FITZGERALD US CTHSE	FED BLDG-USCH	F	10	222 W 7TH AVE	ANCHORAGE	AK	99501	61.2151021	-149.8852000	"4,55,604.55"	"4,543.38"	1976	0200	MARY SATTLER PELTOLA	Active	BUILDING
AK0032	ANCHORAGE NEW FEDERAL BUILDING US COURTHOUSE ANNEX	FED BLDG-USCH	F	10	222 W 8TH AVE	ANCHORAGE	AK	99513	61.2143281	-149.8863246	"64,821.45"	"27,689.02"	1980	0200	MARY SATTLER PELTOLA	Active	BUILDING
AK0034	ANCHORAGE HISTORIC FEDERAL BUILDING - GARAGE	ANCHORAGE FEDERAL	F	10	654 W 3RD AVE	ANCHORAGE	AK	99501	61.2192693	-149.8945998	"1,599.51"	0.00	1991	0200	MARY SATTLER PELTOLA	Active	STRUCTURE
AK0035	ANCHORAGE NEW FEDERAL BUILDING US CTHSE - PARKING LOT	FED BLDG-USCH	F	10	7TH AVE BETWEEN C&D ST	ANCHORAGE	AK	99513	61.2153124	-149.8883927	0.00	0.00	1993	0200	MARY SATTLER PELTOLA	Active	STRUCTURE
AK0036	ALCAN RECREATION BUILDING	ALCAN LPOE	F	10	MILEPOST 1221.8 ALASKA HWY	TOK	AK	99780	62.6218602	-141.0095915	"1,449.81"	0.00	1971	0200	MARY SATTLER PELTOLA	Active	BUILDING
AK0037	ALCAN POLE BUILDING	ALCAN LPOE	F	10	MILEPOST 1221.8 ALASKA HWY	TOK	AK	99780	62.6219095	-141.0097633	"1,026.07"	0.00	1971	0200	MARY SATTLER PELTOLA	Active	BUILDING
AK0038	POKER CREEK LAND PORT OF ENTRY	NA	F	10	TAYLOR HIGHWAY	TOK	AK	99780	64.0856385	-141.0015280	"1,457.23"	0.00	2000	0200	MARY SATTLER PELTOLA	Active	BUILDING
AK0040	ALCAN LAND LEASE	ALCAN LPOE	F	10	MILEPOST 1221.8 ALASKA HWY	TOK	AK	99780	62.6216705	-141.0102489	"3,500.00"	0.00	1972	0200	MARY SATTLER PELTOLA	Active	BUILDING
AK0506	ALCAN LAND PORT OF ENTRY STATION BUILDING	ALCAN LPOE	F	10	MILEPOST 1221.8 ALASKA HWY	TOK	AK	99780	62.6205910	-141.0078733	"6,297.56"	0.00	1971	0200	MARY SATTLER PELTOLA	Active	BUILDING
AK0507	ALCAN SERVICE BUILDING	ALCAN LPOE	F	10	MILEPOST 1221.8 ALASKA HWY	TOK	AK	99780	62.6208470	-141.0074622	"6,723.77"	0.00	1971	0200	MARY SATTLER PELTOLA	Active	BUILDING
AK0508	ALCAN TRI-PLEX	ALCAN LPOE	F	10	MILEPOST 1221.8 ALASKA HWY	TOK	AK	99780	62.6212762	-141.0078481	"10,220.83"	0.00	1971	0200	MARY SATTLER PELTOLA	Active	BUILDING
AK0513	ALCAN FOUR-PLEX	ALCAN LPOE	F	10	MILEPOST 1221.8 ALASKA HWY	TOK	AK	99780	62.6216820	-141.0083691	"8,700.43"	"2,555.83"	1972	0200	MARY SATTLER PELTOLA	Active	BUILDING
AK0514	PETERSBURG FEDERAL BUILDING	NA	F	10	12 N NORDIC DR	PETERSBURG	AK	99833	56.8112422	-132.9573982	"10,704.06"	"10,704.06"	1972	0200	MARY SATTLER PELTOLA	Active	BUILDING
AK0521	DALTON CACHE LAND PORT OF ENTRY	DALTON CACHE LPOE	F	10	MILE 42 HAINES HIGHWAY	HAINES	AK	99827	59.4502251	-136.3615598	"8,645.48"	0.00	1979	0200	MARY SATTLER PELTOLA	Active	BUILDING
AK0523	DALTON CACHE RESIDENCE #2	DALTON CACHE LPOE	F	10	MILE 42 HAINES HIGHWAY	HAINES	AK	99827	59.4498427	-136.3618501	"1,915.23"	"1,915.23"	1979	0200	MARY SATTLER PELTOLA	Active	BUILDING
AK0525	DALTON CACHE STORAGE	DALTON CACHE LPOE	F	10	MILE 42 HAINES HIGHWAY	HAINES	AK	99827	59.4499053	-136.3612717	299.75	299.75	1979	0200	MARY SATTLER PELTOLA	Active	BUILDING
AK0526	SKAGWAY LAND PORT OF ENTRY	NA	F	10	KLONDIKE HWY	SKAGWAY	AK	99840	59.5273622	-135.2295646	"6,032.98"	0.00	1994	0200	MARY SATTLER PELTOLA	Active	BUILDING
AK3139	TROUTTE CENTER	NA	L	10	329 HARBOR DR	SITKA	AK	99835	57.0502849	-135.3336440	951.00	0.00		0200	MARY SATTLER PELTOLA	Active	BUILDING
AK3166	PETERSON TOWER	NA	L	10	510 L ST	ANCHORAGE	AK	99501	61.2171472	-149.9043195	"15,741.00"	"10,217.61"		0200	MARY SATTLER PELTOLA	Active	BUILDING
AK3177	TUDOR BUSINESS CNTER	NA	L	10	1011 E TUDOR RD	ANCHORAGE	AK	99503	61.1821109	-149.8631112	"89,049.00"	0.00		0200	MARY SATTLER PELTOLA	Active	BUILDING
AK3180	MICHAEL BUILDING	NA	L	10	620 E 10TH AVE	ANCHORAGE	AK	99501	61.2123710	-149.8723144	"36,538.00"	0.00		0200	MARY SATTLER PELTOLA	Active	BUILDING
AK3219	RHINE BUILDING	NA	L	10	2770 SHERWOOD LN	JUNEAU	AK	99801	58.3716941	-134.6172235	"9,433.00"	0.00		0200	MARY SATTLER PELTOLA	Active	BUILDING
AK3227	ELIZABETH PERATROVICH BUILDING	NA	L	10	15 12TH ST	PETERSBURG	AK	99833	56.8108518	-132.9427556	770.00	0.00		0200	MARY SATTLER PELTOLA	Active	BUILDING
AK3228	K & R BLDG	NA	L	10	204 SIGINAKA WAY	SITKA	AK	99835	57.0569120	-135.3482243	"1,782.00"	0.00		0200	MARY SATTLER PELTOLA	Active	BUILDING
AK3237	VECO ALASKA BUILDING	NA	L	10	949 E 36TH AVE	ANCHORAGE	AK	99508	61.1885652	-149.8623691	"23,053.00"	"3,152.00"		0200	MARY SATTLER PELTOLA	Active	BUILDING
AK3239	ALASKA PACIFIC UNIV.GRACE HALL	NA	L	10	4230 UNIVERSITY DR	ANCHORAGE	AK	99508	61.1885694	-149.8022704	"28,436.00"	0.00		0200	MARY SATTLER PELTOLA	Active	BUILDING
AK3244	"COURTHOUSE SQUARE - FAIRBANKS, AK"	NA	L	10	250 CUSHMAN ST	FAIRBANKS	AK	99701	64.8429976	-147.7216072	"4,108.00"	0.00		0200	MARY SATTLER PELTOLA	Active	BUILDING
AK3251	5100 CORDOVA BLDG	NA	L	10	5100 CORDOVA ST	ANCHORAGE	AK	99503	61.1743829	-149.8793121	"4,887.00"	0.00		0200	MARY SATTLER PELTOLA	Active	BUILDING
AK3256	TRI-M WAREHOUSE	NA	L	10	606 WEST SECOND AVENUE	NOME	AK	99762	64.5006448	-165.4151252	"3,800.00"	0.00		0200	MARY SATTLER PELTOLA	Active	BUILDING
AK3263	MEPS FACILITY	NA	L	10	1717 C ST	ANCHORAGE	AK	99501	61.2044527	-149.8864230	"19,665.00"	0.00		0200	MARY SATTLER PELTOLA	Active	BUILDING
AK3276	INS GARAGE	NA	L	10	1040 GAMBELL ST	ANCHORAGE	AK	99501	61.2119195	-149.8715173	"6,857.00"	0.00		0200	MARY SATTLER PELTOLA	Active	BUILDING
AK3279	JUNEAU FLITE CENTER	NA	L	10	1945 ALEX HOLDEN WAY	JUNEAU	AK	99801	58.3604730	-134.5876110	"4,650.00"	0.00		0200	MARY SATTLER PELTOLA	Active	BUILDING
AK3282	"AIRPORT BUSINESS CENTER - UNALASKA, AK"	NA	L	10	2387 AIRPORT BEACH RD	UNALASKA	AK	99685	53.8940597	-166.5408223	"10,377.00"	0.00		0200	MARY SATTLER PELTOLA	Active	BUILDING
AK3283	FEMA DRSF (DISASTER RESPONSE FACILITY)	NA	L	10	350 E INTERNATIONAL AIRPORT RD	ANCHORAGE	AK	99518	61.1735059	-149.8768281	"7,200.00"	0.00		0200	MARY SATTLER PELTOLA	Active	BUILDING
AK3303	BLOMFIELD ADMIN BUILDING	NA	L	10	101 E 6TH AVE	ANCHORAGE	AK	99501	61.2168550	-149.8821563	"41,141.00"	0.00		0200	MARY SATTLER PELTOLA	Active	BUILDING
AK3306	NPS HANGAR	NA	L	10	"LOT 2, BLOCK 4"	YAKUTAT	AK	99689	59.8096909	-139.5487273	"4,700.00"	0.00		0200	MARY SATTLER PELTOLA	Active	BUILDING
AK3308	SEAVIEW PLAZA	NA	L	10	302 RAILWAY AVE	SEWARD	AK	99664	60.1004965	-149.4416332	922.00	0.00		0200	MARY SATTLER PELTOLA	Active	BUILDING
AK3317	"ATRIUM BUILDING - PALMER, AK"	NA	L	10	800 E PALMER-WASILLA HWY	PALMER	AK	99645	61.5991580	-149.1289587	"19,716.00"	0.00		0200	MARY SATTLER PELTOLA	Active	BUILDING
AK3331	KODIAK ISLAND	NA	L	10	301 RESEARCH CT	KODIAK	AK	99615	57.7815840	-152.3960910	"26,401.00"	0.00		0200	MARY SATTLER PELTOLA	Active	BUILDING
AK3332	BALLARD BUILDING	NA	L	10	43655 KALIFORNSKY BEACH RD	SOLDOTNA	AK	99669	60.4892340	-151.1545905	"5,010.00"	0.00		0200	MARY SATTLER PELTOLA	Active	BUILDING
AK3335	EKLUTNA BUILDING	NA	L	10	100 E 5TH AVE	ANCHORAGE	AK	99501	61.2172735	-149.8824147	"23,992.00"	0.00		0200	MARY SATTLER PELTOLA	Active	BUILDING
AK3338	ATTORNEY'S PLAZA	NA	L	10	590 UNIVERSITY AVE	FAIRBANKS	AK	99709	64.8467393	-147.8135117	"5,029.00"	0.00		0200	MARY SATTLER PELTOLA	Active	BUILDING
AK3341	FRONTIER BUILDING	NA	L	10	3601 C ST	ANCHORAGE	AK	99503	61.1876136	-149.8840309	"42,604.00"	0.00		0200	MARY SATTLER PELTOLA	Active	BUILDING
AK3344	BLOMFIELD TUDOR BUILDING	NA	L	10	1630 E TUDOR RD	ANCHORAGE	AK	99507	61.1796273	-149.8507770	"27,763.00"	0.00		0200	MARY SATTLER PELTOLA	Active	BUILDING
AK3360	PROSPECTUS WAREHOUSE	NA	L	10	319 E SHIP CREEK AVE	ANCHORAGE	AK	99501	61.2226400	-149.8785664	"10,000.00"	0.00		0200	MARY SATTLER PELTOLA	Active	BUILDING
AK3365	NOAA OBSERVER MAKUSHIN DUPLEX	NA	L	10	"63 KASHEGA DRIVE, UNIT N-4,"	UNALASKA	AK	99685	53.8876627	-166.5417714	"1,051.00"	0.00		0200	MARY SATTLER PELTOLA	Active	BUILDING
AK3371	GIBERTONI BUILDING	NA	L	10	3400 SHELL ST	FAIRBANKS	AK	99701	64.8142938	-147.7724312	"7,200.00"	0.00		0200	MARY SATTLER PELTOLA	Active	BUILDING
AK3373	U.S. PARK SERVICE BUILDING	NA	L	10	240 W 5TH AVE	ANCHORAGE	AK	99501	61.2172234	-149.8862209	"75,286.00"	0.00		0200	MARY SATTLER PELTOLA	Active	BUILDING
AK3375	4000 WEST 50TH BLDG 2ND FLOOR	NA	L	10	4000 W 50TH AVE	ANCHORAGE	AK	99502	61.1753387	-149.9596773	"13,038.00"	0.00		0200	MARY SATTLER PELTOLA	Active	BUILDING
AK3377	CLEVELAND PROPERTIES	NA	L	10	970 DEERE ST	FAIRBANKS	AK	99709	64.8538622	-147.7798687	0.00	0.00		0200	MARY SATTLER PELTOLA	Active	BUILDING
AK3378	WESTFLIGHT BUILDING	NA	L	10	1621 TONGASS AVE	KETCHIKAN	AK	99901	55.3470283	-131.6640184	"2,875.00"	0.00		0200	MARY SATTLER PELTOLA	Active	BUILDING
AK3379	TED STEVENS INT'L AIRPORT	NA	L	10	4600 POSTMARK DR	ANCHORAGE	AK	99502	61.1784990	-149.9848425	"4,947.00"	0.00		0200	MARY SATTLER PELTOLA	Active	BUILDING
AK3380	CORDOVA OLD AIRLINE TERMINAL	NA	L	10	CORDOVA AIRPORT	OLD VALDEZ	AK	99574	60.5441402	-145.7248311	"1,064.00"	0.00		0200	MARY SATTLER PELTOLA	Active	BUILDING
AK3381	WINGSPAN	NA	L	10	1420 AIRPORT WAY	KODIAK	AK	99615	57.7549440	-152.5154715	950.00	0.00		0200	MARY SATTLER PELTOLA	Active	BUILDING
AK3383	ASRC PROPERTIES LLC	NA	L	10	1078 KIOGAK STREET	UTQIAGVIK	AK	99723	71.2924332	-156.7880011	800.00	0.00		0200	MARY SATTLER PELTOLA	Active	BUILDING
AK3385	"BAKER BUILDING - KOTZEBUE, AK"	NA	L	10	241 5TH AVENUE	KOTZEBUE	AK	99752	66.8930901	-162.5977397	842.00	0.00		0200	MARY SATTLER PELTOLA	Active	BUILDING
AK3386	SITNASUAK BUILDING	NA	L	10	214 FRONT ST	NOME	AK	99762	64.4979966	-165.4081537	827.00	0.00		0200	MARY SATTLER PELTOLA	Active	BUILDING
AK3387	JUNEAU INTERNATIONAL AIRPORT	NA	L	10	1873 SHELL SIMMONS DR	JUNEAU	AK	99801	58.3616520	-134.5851720	589.00	0.00		0200	MARY SATTLER PELTOLA	Active	BUILDING
AK3389	KETCHIKAN AIRPORT - HANGER #1	NA	L	10	LOT 4 BLK 400 US SURVEY 3535	KETCHIKAN	AK	99901	55.3559123	-131.7080884	"2,196.00"	0.00		0200	MARY SATTLER PELTOLA	Active	BUILDING
AK3391	YAKUTAT AIRPORT BUSINESS PLAZA	NA	L	10	915 AIRPORT ACCESS RD	YAKUTAT	AK	99689	59.5075928	-139.6722649	0.00	0.00		0200	MARY SATTLER PELTOLA	Active	BUILDING
AK3395	SADLER BUSINESS PLAZA	NA	L	10	5904 OLD AIRPORT WAY	FAIRBANKS	AK	99709	64.8267592	-147.8507088	"8,175.70"	0.00		0200	MARY SATTLER PELTOLA	Active	BUILDING
AK3406	PENAIR TERMINAL	NA	L	10	AIRPORT RD	DILLINGHAM	AK	99576	59.0428391	-158.5133538	530.00	0.00		0200	MARY SATTLER PELTOLA	Active	BUILDING
AK3408	PACIFIC WING INC	NA	L	10	1500 HAUGEN DR	PETERSBURG	AK	99833	56.8064192	-132.9333108	"1,110.00"	0.00		0200	MARY SATTLER PELTOLA	Active	BUILDING
AK3410	PAWS RENTAL BLDG	NA	L	10	221 FRONT ST	WRANGELL	AK	99929	56.4714368	-132.3838586	"1,200.00"	0.00		0200	MARY SATTLER PELTOLA	Active	BUILDING
AK3414	3000 C STREET	NA	L	10	3000 C ST	ANCHORAGE	AK	99503	61.1930468	-149.8874212	"14,805.00"	0.00		0200	MARY SATTLER PELTOLA	Active	BUILDING
AK3416	420 L STREET BUILDING	NA	L	10	420 L ST	ANCHORAGE	AK	99501	61.2180022	-149.9043865	"5,521.00"	0.00		0200	MARY SATTLER PELTOLA	Active	BUILDING
AK3417	HC 63	NA	L	10	MILE 1225 ALASKA HIGHWAY	TOK	AK	99780	63.8008636	-142.3163545	0.00	0.00		0200	MARY SATTLER PELTOLA	Active	LAND
AK3418	8 BUILDING SITES	NA	L	10	MILEPOST 1.5 KLONDIKE HWY	SKAGWAY	AK	99840	59.6061840	-135.1748740	0.00	0.00		0200	MARY SATTLER PELTOLA	Active	LAND
AK3428	4000 W 50TH AVE BLDG B	NA	L	10	4000 W 50TH AVE	ANCHORAGE	AK	99502	61.1753637	-149.9614726	"1,317.00"	0.00		0200	MARY SATTLER PELTOLA	Active	BUILDING
AK3429	CENTERPOINT FINANCIAL CENTER	NA	L	10	3801 CENTERPOINT DR	ANCHORAGE	AK	99503	61.1866356	-149.8879080	"33,827.00"	0.00		0200	MARY SATTLER PELTOLA	Active	BUILDING
AK3431	NEW APHIS BUILDING	NA	L	10	9001 E FRONTAGE RD	PALMER	AK	99645	61.6000132	-149.2235404	"6,225.00"	0.00		0200	MARY SATTLER PELTOLA	Active	BUILDING
AK3442	LOT 4B SILVERADO SUBDIVISION	NA	L	10	5761 SILVERADO WAY	ANCHORAGE	AK	99518	61.1685741	-149.8876649	"5,966.00"	0.00		0200	MARY SATTLER PELTOLA	Active	BUILDING
AK3450	"NATIONAL PARK SERVICE BLDG - FAIRBANKS, AK"	NA	L	10	4175 GEIST RD	FAIRBANKS	AK	99709	64.8486048	-147.8359067	"20,809.00"	0.00		0200	MARY SATTLER PELTOLA	Active	BUILDING
AK3457	TUNDRA TYKES BUILDING	NA	L	10	750 D ST	ANCHORAGE	AK	99501	61.2148298	-149.8900192	"9,425.00"	0.00		0200	MARY SATTLER PELTOLA	Active	BUILDING
AK3458	SHEE ATIKA BUILDING	NA	L	10	601 ALICE LOOP	SITKA	AK	99835	57.0472970	-135.3493522	"1,900.00"	0.00		0200	MARY SATTLER PELTOLA	Active	BUILDING
AK3461	FAIRBANKS INTERNATIONAL AIRPORT - NORTH STAR BOROUGH	NA	L	10	6450 AIRPORT WAY	FAIRBANKS	AK	99709	64.8176123	-147.8676885	"1,155.00"	0.00		0200	MARY SATTLER PELTOLA	Active	BUILDING
AK3464	KING SALMON AIRPORT TERMINAL	NA	L	10	KING SALMON AIRPORT	KING SALMON	AK	99613	58.6827200	-156.6693700	"1,150.00"	0.00		0200	MARY SATTLER PELTOLA	Active	BUILDING
AK3466	GLEN OLDS HALL	NA	L	10	4210 UNIVERSITY DR	ANCHORAGE	AK	99508	61.1878789	-149.8041103	"45,273.00"	0.00	2007	0200	MARY SATTLER PELTOLA	Active	BUILDING
AK3468	1901 AIRPORT WAY	NA	L	10	1901 AIRPORT WAY	FAIRBANKS	AK	99701	64.8349093	-147.7583250	"3,433.00"	0.00	2007	0200	MARY SATTLER PELTOLA	Active	BUILDING
AK3469	MORRIS THOMPSON CULTURAL & VIS	NA	L	10	101 DUNKEL ST	FAIRBANKS	AK	99701	64.8459450	-147.7128600	"14,554.00"	0.00	2008	0200	MARY SATTLER PELTOLA	Active	BUILDING
AK3472	GARAGETOWN SOUTH ANCHORAGE	NA	L	10	8479 TOLOFF ST	ANCHORAGE	AK	99507	61.1441240	-149.8421963	"2,400.00"	0.00	2008	0200	MARY SATTLER PELTOLA	Active	BUILDING
AK3473	NORTHERN LIGHTS	NA	L	10	188 W NORTHERN LIGHTS BLVD	ANCHORAGE	AK	99503	61.1947878	-149.8859649	"25,200.00"	0.00	2008	0200	MARY SATTLER PELTOLA	Active	BUILDING
AK3475	PIER 2 WAREHOUSE	NA	L	10	727 SHELIKOF ST	KODIAK	AK	99615	57.7841455	-152.4267388	"5,400.00"	0.00	2000	0200	MARY SATTLER PELTOLA	Active	BUILDING
AK3481	ALASKA RAILROAD HISTORIC FREIGHT SHED	NA	L	10	161 E 1ST AVE	ANCHORAGE	AK	99501	61.2216844	-149.8830081	"27,770.00"	0.00		0200	MARY SATTLER PELTOLA	Active	BUILDING
AK3484	POST OFFICE CT. JAIL	NA	L	10	113 FRONT ST	NOME	AK	99762	64.4980326	-165.4091948	"10,865.00"	0.00	1958	0200	MARY SATTLER PELTOLA	Active	BUILDING
AK3487	MINDORO BUSINESS PARK	NA	L	10	651 E 100TH AVE	ANCHORAGE	AK	99515	61.1307826	-149.8696954	"4,800.00"	0.00		0200	MARY SATTLER PELTOLA	Active	BUILDING
AK3492	10008 CRAZY HORSE DR	NA	L	10	10008 CRAZY HORSE DR	JUNEAU	AK	99801	58.3666383	-134.6073666	"1,595.00"	0.00		0200	MARY SATTLER PELTOLA	Active	BUILDING
AK3493	FRAZIERS WAY BUSINESS PARK	NA	L	10	1508 BOGARD RD	WASILLA	AK	99654	61.5884669	-149.4121614	"4,200.00"	0.00		0200	MARY SATTLER PELTOLA	Active	BUILDING
AK3494	115 HARVEST WAY BUILDING	NA	L	10	115 HARVEST WAY	SITKA	AK	99835	57.0494318	-135.3056857	"5,506.50"	0.00		0200	MARY SATTLER PELTOLA	Active	BUILDING
AK3496	AURORA HOTEL	NA	L	10	123 LAKE COLLEEN ROAD	PRUDHOE BAY	AK	99734	70.2119556	-148.4376616	"1,000.00"	0.00		0200	MARY SATTLER PELTOLA	Active	BUILDING
AK3498	YUTE COMMUTER TERMINAL	NA	L	10	CHIEF EDDY HOFFMAN HWY	BETHEL	AK	99559	60.7821896	-161.8409069	"1,051.00"	0.00		0200	MARY SATTLER PELTOLA	Active	BUILDING
AK3499	UNIVERSITY OF ALASKA - FAIRBANKS	NA	L	10	2160 KOYUKUK DR	FAIRBANKS	AK	99775	64.8591120	-147.8508795	"6,190.00"	0.00		0200	MARY SATTLER PELTOLA	Active	BUILDING
AK3501	NOAA SITKA WAREHOUSE	NA	L	10	1517 SAWMILL CREEK RD	SITKA	AK	99835	57.0477637	-135.2993384	258.00	0.00		0200	MARY SATTLER PELTOLA	Active	BUILDING
AK3502	LAKE HOOD HANGARS	NA	L	10	4480 AIRCRAFT DR	ANCHORAGE	AK	99502	61.1795610	-149.9794560	"4,009.00"	0.00		0200	MARY SATTLER PELTOLA	Active	BUILDING
AK3503	ENGINEERING FACILITY	NA	L	10	1764 TANANA LOOP	FAIRBANKS	AK	99775	64.8556740	-147.8173815	756.00	0.00		0200	MARY SATTLER PELTOLA	Active	BUILDING
AK3507	YAKUTAT HANGAR	NA	L	10	985 ENDICOTT WAY	YAKUTAT	AK	99689	59.5090265	-139.6712604	"1,225.00"	0.00		0200	MARY SATTLER PELTOLA	Active	BUILDING
AK3601	CORPORATE EXPRESS BUILDING	NA	L	10	4831 OLD SEWARD HWY	ANCHORAGE	AK	99503	61.1764290	-149.8675275	"14,400.00"	0.00		0200	MARY SATTLER PELTOLA	Active	BUILDING
AL0003	FRANK JOHNSON ANNEX	GSA/DMS DEPOT	F	04	1 CHURCH ST	MONTGOMERY	AL	36104	32.3759055	-86.3089230	"2,62,060.69"	"12,873.20"	2001	0102	BARRY MOORE	Active	BUILDING
AL0005	MONTGOMERY BUS STATION	NA	F	04	210 S COURT ST	MONTGOMERY	AL	36104	32.3749027	-86.3089766	"3,310.17"	0.00	1951	0102	BARRY MOORE	Active	BUILDING
AL0007	MOBILE USCT	NA	F	04	155 SAINT JOSEPH ST	MOBILE	AL	36602	30.6944904	-88.0430034	"1,24,370.76"	0.00	2018	0101	JERRY L. CARL	Active	BUILDING
AL0008	"US COURTHOUSE, ANNISTON, AL"	NA	F	04	1100 GURNEE AVE	ANNISTON	AL	36201	33.6584910	-85.8314063	"54,011.64"	0.00	2022	0103	MIKE ROGERS	Active	BUILDING
AL0010	FEDERAL BUILDING-COURTHOUSE	NA	F	04	2005 UNIVERSITY BLVD	TUSCALOOSA	AL	35401	33.2101900	-87.5631610	"1,04,049.09"	"1,315.37"	2011	0107	TERRI A. SEWELL	Active	BUILDING
AL0011	ROBERT S. VANCE FB-CT	NA	F	04	1800 5TH AVE N	BIRMINGHAM	AL	35203	33.5173800	-86.8104810	"1,55,354.02"	"16,543.44"	1921	0107	TERRI A. SEWELL	Active	BUILDING
AL0019	"FB-CT, DOTHAN, AL"	NA	F	04	100 W TROY ST	DOTHAN	AL	36303	31.2254000	-85.3926110	"17,898.69"	447.82	1911	0102	BARRY MOORE	Active	BUILDING
AL0026	"U S POST OFFICE, FLORENCE, AL"	NA	L	04	210 N SEMINARY ST	FLORENCE	AL	35630	34.8017528	-87.6751809	"7,594.00"	0.00	1913	0105	DALE W. STRONG	Active	BUILDING
AL0034	"PO-CT, HUNTSVILLE, AL"	NA	F	04	101 HOLMES AVE NE	HUNTSVILLE	AL	35801	34.7324700	-86.5870410	"37,247.63"	516.02	1936	0105	DALE W. STRONG	Active	BUILDING
AL0039	JOHN A CAMPBELL USCT	FEDERAL BLDG	F	04	113 ST JOSEPH ST	MOBILE	AL	36602	30.6936968	-88.0426349	"1,04,664.90"	"2,371.39"	1934	0101	JERRY L. CARL	Active	BUILDING
AL0043	"F.M.JOHNSON,JR. FBCT"	GSA/DMS DEPOT	F	04	15 LEE ST	MONTGOMERY	AL	36104	32.3752458	-86.3090427	"1,17,949.41"	"19,111.05"	1933	0102	BARRY MOORE	Active	BUILDING
AL0046	G. W. ANDREWS FB-CT	NA	F	04	701 AVENUE A	OPELIKA	AL	36801	32.6478600	-85.3772510	"19,423.88"	"2,702.58"	1918	0103	MIKE ROGERS	Active	BUILDING
AL0055	FB CT	NA	F	04	908 ALABAMA AVE	SELMA	AL	36701	32.4069165	-87.0217802	"20,621.95"	"9,052.60"	1909	0107	TERRI A. SEWELL	Active	BUILDING
AL0073	SEYBOURNE H. LYNNE USCT	NA	L	04	400 WELL ST NE	DECATUR	AL	35601	34.6066467	-86.9823845	"20,710.00"	0.00	1965	0105	DALE W. STRONG	Active	BUILDING
AL0076	"FEDERAL BUILDING, MOBILE, AL"	FEDERAL BLDG	F	04	109 SAINT JOSEPH ST	MOBILE	AL	36602	30.6936269	-88.0425997	"1,96,573.93"	0.00	1974	0101	JERRY L. CARL	Active	BUILDING
AL0077	COMBINED PARKING FAC	FEDERAL BLDG	F	04	167 ST LOUIS ST	MOBILE	AL	36602	30.6941989	-88.0432696	"3,584.46"	810.18	1974	0101	JERRY L. CARL	Active	STRUCTURE
AL0081	HUGO L BLACK USCT	NA	F	04	1729 5TH AVE N	BIRMINGHAM	AL	35203	33.5162268	-86.8119442	"1,60,343.10"	"1,282.99"	1987	0107	TERRI A. SEWELL	Active	BUILDING
AL1040	LAKESHORE CROSSINGS	NA	L	04	1030 LONDON DR	BIRMINGHAM	AL	35211	33.4412000	-86.8640510	"20,554.00"	0.00		0107	TERRI A. SEWELL	Active	BUILDING
AL1119	"USCIS BUILDING, MONTGOMERY, AL"	NA	L	04	3381 ATLANTA HWY	MONTGOMERY	AL	36109	32.3848372	-86.2601570	"21,420.00"	0.00		0102	BARRY MOORE	Active	BUILDING
AL1133	ETOWAH COUNTY BUILDING	NA	L	04	801 FORREST AVE	GADSDEN	AL	35901	34.0161100	-86.0118510	0.00	0.00		0104	ROBERT B. ADERHOLT	Active	BUILDING
AL1134	BROAD STREET	NA	L	04	634 BROAD ST	GADSDEN	AL	35901	34.0146490	-86.0069640	"1,450.00"	0.00		0104	ROBERT B. ADERHOLT	Active	BUILDING
AL1174	SSA AUBURN	NA	L	04	2454 E UNIVERSITY DR	AUBURN	AL	36830	32.6292800	-85.4642610	"7,823.00"	0.00		0103	MIKE ROGERS	Active	BUILDING
AL1204	ICE MOBILE	NA	L	04	1514 S BROAD ST	MOBILE	AL	36605	30.6569250	-88.0603280	"12,500.00"	0.00	2016	0101	JERRY L. CARL	Active	BUILDING
AL1213	"THE PLAZA, BIRMINGHAM, AL"	NA	L	04	417 20TH ST N	BIRMINGHAM	AL	35203	33.5180100	-86.8075610	"51,070.00"	0.00		0107	TERRI A. SEWELL	Active	BUILDING
AL1238	"UNIVERSITY PLACE MOBILE, LLC"	NA	L	04	820 S UNIVERSITY BLVD	MOBILE	AL	36609	30.6628440	-88.1652980	"9,999.00"	0.00		0101	JERRY L. CARL	Active	BUILDING
AL1241	GROVE PARK CENTER	NA	L	04	200 GROVE PARK LN	DOTHAN	AL	36305	31.2370820	-85.4647690	"4,355.00"	0.00		0102	BARRY MOORE	Active	BUILDING
AL1296	406 MARTLING RD	NA	L	04	406 MARTLING RD	ALBERTVILLE	AL	35951	34.2753100	-86.1988010	"7,890.00"	0.00	2019	0104	ROBERT B. ADERHOLT	Active	BUILDING
AL1342	475 QUALITY CIRCLE NW	CORPS OF ENGINEERS	L	04	475 QUALITY CIR NW	HUNTSVILLE	AL	35806	34.7047740	-86.6921310	"1,51,565.00"	0.00		0105	DALE W. STRONG	Active	BUILDING
AL1376	MOBILE DOWNTOWN AIRPORT	NA	L	04	2455 MICHIGAN AVE	MOBILE	AL	36615	30.6386000	-88.0793110	390.00	0.00		0101	JERRY L. CARL	Active	BUILDING
AL1387	"TIMES PLAZA, HUNTSVILLE, AL"	NA	L	04	2317 S MEMORIAL PKWY	HUNTSVILLE	AL	35801	34.7147000	-86.5901610	"11,723.00"	0.00		0105	DALE W. STRONG	Active	BUILDING
AL1388	PERIMETER PARK	NA	L	04	1525 PERIMETER PKWY NW	HUNTSVILLE	AL	35806	34.7458700	-86.6734510	"6,613.00"	0.00		0105	DALE W. STRONG	Active	BUILDING
AL1396	ICE BIRMINGHAM	NA	L	04	107 FRANKFURT CIR	BIRMINGHAM	AL	35211	33.4368450	-86.8657590	"12,470.00"	0.00		0107	TERRI A. SEWELL	Active	BUILDING
AL1405	FBI REDSTONE	NA	L	04	100 SECURED GATEWAY SW	HUNTSVILLE	AL	35808	34.6991400	-86.6734000	"39,767.00"	0.00		0105	DALE W. STRONG	Active	BUILDING
AL2010	COLONIAL FINANCIAL	NA	L	04	1 COMMERCE ST	MONTGOMERY	AL	36104	32.3775600	-86.3102610	"36,495.00"	0.00		0102	BARRY MOORE	Active	BUILDING
AL2012	PARKVIEW OFFICE BLDG	NA	L	04	182 ST FRANCIS ST	MOBILE	AL	36602	30.6928800	-88.0433210	"6,995.00"	0.00		0101	JERRY L. CARL	Active	BUILDING
AL2024	MONTLIMAR PLACE	NA	L	04	1110 MONTLIMAR DR	MOBILE	AL	36609	30.6678500	-88.1346810	"1,188.00"	0.00		0101	JERRY L. CARL	Active	BUILDING
AL2036	"SSA IRS WALNUT ST EXECUTIVE CTR, FLORENCE,AL"	NA	L	04	204 S WALNUT ST	FLORENCE	AL	35630	34.8008043	-87.6714255	"19,153.00"	0.00		0105	DALE W. STRONG	Active	BUILDING
AL2042	BARBER BUSINESS PARK	NA	L	04	135 GEMINI CIR	BIRMINGHAM	AL	35209	33.4616703	-86.8356712	"3,940.00"	0.00	2003	0107	TERRI A. SEWELL	Active	BUILDING
AL2044	"EXECUTIVE CENTER, MOBILE, AL"	NA	L	04	900 WESTERN AMERICA CIR	MOBILE	AL	36609	30.6736609	-88.1306727	"11,433.00"	"7,624.00"		0101	JERRY L. CARL	Active	BUILDING
AL2048	AMSOUTH CENTER	NA	L	04	200 CLINTON AVE W	HUNTSVILLE	AL	35801	34.7309200	-86.5883410	"3,411.00"	0.00	2008	0105	DALE W. STRONG	Active	BUILDING
AL2056	"REGENCY CENTER, HUNTSVILLE, AL"	NA	L	04	400 MERIDIAN ST N	HUNTSVILLE	AL	35801	34.7351811	-86.5866831	"2,175.00"	0.00		0105	DALE W. STRONG	Active	BUILDING
AL2057	"VERIZON BUILDING, MONTGOMERY, AL"	NA	L	04	2950 CHESTNUT ST	MONTGOMERY	AL	36107	32.3666500	-86.2676310	"15,792.00"	0.00		0102	BARRY MOORE	Active	BUILDING
AL2062	"ADAMS STREET CENTRE PLAZA, DOTHAN, AL"	NA	L	04	202 W ADAMS ST	DOTHAN	AL	36303	31.2269100	-85.3944710	"4,066.00"	0.00		0102	BARRY MOORE	Active	BUILDING
AL2070	4890 UNIVERSITY SQUARE	NA	L	04	4890 UNIVERSITY SQ	HUNTSVILLE	AL	35816	34.7434100	-86.6539510	"3,967.00"	0.00		0105	DALE W. STRONG	Active	BUILDING
AL2071	MEDICAL FORUM	NA	L	04	950 22ND ST N	BIRMINGHAM	AL	35203	33.5249334	-86.8091763	"28,789.00"	0.00		0107	TERRI A. SEWELL	Active	BUILDING
AL2077	PROBATION	NA	L	04	201 ST MICHAEL ST	MOBILE	AL	36602	30.6930422	-88.0436236	"17,515.00"	0.00		0101	JERRY L. CARL	Active	BUILDING
AL2101	"BLS FBI WALNUT ST EXECUTIVE CTR, FLORENCE,AL"	NA	L	04	204 S WALNUT ST	FLORENCE	AL	35630	34.8008805	-87.6714365	"3,087.00"	0.00		0105	DALE W. STRONG	Active	BUILDING
AL2107	CIVIC PLAZA	NA	L	04	307 CLINTON AVE	HUNTSVILLE	AL	35801	34.7299033	-86.5886370	690.00	0.00		0105	DALE W. STRONG	Active	BUILDING
AL2109	"PARK PLACE, MONTGOMERY, AL"	NA	L	04	2350 FAIRLANE DR	MONTGOMERY	AL	36116	32.3350000	-86.2334310	"6,150.00"	0.00		0102	BARRY MOORE	Active	BUILDING
AL2120	WOUNDED OAK PROFESSIONAL PARK	NA	L	04	1208 MAIN ST	DAPHNE	AL	36526	30.5952200	-87.9026911	"7,087.00"	0.00	1997	0101	JERRY L. CARL	Active	BUILDING
AL2121	"DANIEL BUILDING, BIRMINGHAM, AL"	NA	L	04	15 20TH ST S	BIRMINGHAM	AL	35233	33.5127148	-86.8044381	"7,492.00"	0.00	1997	0107	TERRI A. SEWELL	Active	BUILDING
AL2125	RIVERVIEW PLAZA	NA	L	04	63 S ROYAL ST	MOBILE	AL	36602	30.6912600	-88.0402010	"49,021.00"	0.00		0101	JERRY L. CARL	Active	BUILDING
AL2127	NORTHWOOD OFFICE COMPLES	NA	L	04	807 DONNELL BLVD	DALEVILLE	AL	36322	31.3205189	-85.7093189	"1,500.00"	0.00		0102	BARRY MOORE	Active	BUILDING
AL2129	201 OFFICE PARK BUILDING	NA	L	04	201 PINEVILLE RD	MONROEVILLE	AL	36460	31.5288325	-87.3212744	"1,081.00"	0.00		0101	JERRY L. CARL	Active	BUILDING
AL2132	CLOKEY-MADDOX BUILDING	NA	L	04	310 S 3RD ST	GADSDEN	AL	35901	34.0093100	-86.0037510	"5,804.00"	0.00		0104	ROBERT B. ADERHOLT	Active	BUILDING
AL2145	"SOCIAL SECURITY BUILDING, JACKSON, AL"	NA	L	04	4249 N COLLEGE AVE	JACKSON	AL	36545	31.5563481	-87.8767718	"5,450.00"	0.00	2000	0101	JERRY L. CARL	Active	BUILDING
AL2150	"FBI BUILDING, MOBILE, AL"	NA	L	04	200 N ROYAL ST	MOBILE	AL	36602	30.6962300	-88.0415010	"76,112.00"	0.00		0101	JERRY L. CARL	Active	BUILDING
AL2153	"SSA, DECATUR, AL"	NA	L	04	717 MCGLATHERY LN SE	DECATUR	AL	35601	34.5741200	-86.9792410	"9,768.00"	0.00	2001	0105	DALE W. STRONG	Active	BUILDING
AL2154	RIDGE PARK PLACE	NA	L	04	1130 22ND ST S	BIRMINGHAM	AL	35205	33.5024850	-86.7917719	"29,273.00"	0.00		0107	TERRI A. SEWELL	Active	BUILDING
AL2156	RESEARCH PLACE BUILDING II	NA	L	04	5000 BRADFORD DR NW	HUNTSVILLE	AL	35805	34.7284600	-86.6603610	"17,582.00"	0.00		0105	DALE W. STRONG	Active	BUILDING
AL2157	"SOCIAL SECURITY BUILDING, DOTHAN, AL"	NA	L	04	1778 WHATLEY DR	DOTHAN	AL	36303	31.2436800	-85.4600610	"13,919.00"	0.00	2001	0102	BARRY MOORE	Active	BUILDING
AL2159	"SSA BUILDING, TALLADEGA, AL"	NA	L	04	736 NORTH ST E	TALLADEGA	AL	35160	33.4386233	-86.0885588	"7,317.00"	0.00		0103	MIKE ROGERS	Active	BUILDING
AL2160	"SOCIAL SECURITY BUILDING, FAIRHOPE, AL"	NA	L	04	101 COURTHOUSE DR	FAIRHOPE	AL	36532	30.5236967	-87.8792114	"7,587.00"	0.00		0101	JERRY L. CARL	Active	BUILDING
AL2161	"SOCIAL SECURITY BUILDING, MOBILE, AL"	NA	L	04	550 GOVERNMENT ST	MOBILE	AL	36602	30.6883400	-88.0486510	"50,816.00"	0.00		0101	JERRY L. CARL	Active	BUILDING
AL2164	1600 INTERSTATE PARK	CORPS OF ENGINEERS	L	04	600 INTERSTATE PARK DR	MONTGOMERY	AL	36109	32.3630500	-86.2415610	"2,907.00"	0.00		0102	BARRY MOORE	Active	BUILDING
AL2165	BUSINESS SERVICE CENTER OF ALA	NA	L	04	2 N JACKSON ST	MONTGOMERY	AL	36104	32.3778700	-86.2961110	"4,701.00"	0.00		0102	BARRY MOORE	Active	BUILDING
AL2166	TWO NORTH TWENTIETH	NA	L	04	2 20TH ST N	BIRMINGHAM	AL	35203	33.5135737	-86.8051066	"28,866.00"	0.00		0107	TERRI A. SEWELL	Active	BUILDING
AL2172	"SOCIAL SECURITY ADMINISTRATION, ANDALUSIA, AL"	NA	L	04	24467 AL-55	ANDALUSIA	AL	36420	31.2780600	-86.4887610	0.00	0.00		0102	BARRY MOORE	Active	BUILDING
AL2175	UN-NAMED BLDG.	NA	L	04	1801 FOURTH AVENUE NORTH	BIRMINGHAM	AL	35203	33.5155691	-86.8100402	"52,467.00"	0.00		0107	TERRI A. SEWELL	Active	BUILDING
AL2181	MOBILE AIRPORT	NA	L	04	8400 AIRPORT BLVD	MOBILE	AL	36608	30.6780202	-88.2392928	"5,631.00"	0.00		0101	JERRY L. CARL	Active	BUILDING
AL2184	BORDER PATROL STATION	NA	L	04	4425 DEMETROPOLIS RD	MOBILE	AL	36619	30.5991360	-88.1566515	"11,615.00"	0.00		0101	JERRY L. CARL	Active	BUILDING
AL2186	WALNUT STREET EXECUTIVE ANNEX	NA	L	04	203 S WALNUT ST	FLORENCE	AL	35630	34.8008416	-87.6713386	"14,206.00"	0.00		0105	DALE W. STRONG	Active	BUILDING
AL2187	HUNTSVILLE INT'L AIRPORT	NA	L	04	1000 GLENN HEARN BLVD SW	HUNTSVILLE	AL	35824	34.6491289	-86.7766721	"4,171.00"	0.00		0105	DALE W. STRONG	Active	BUILDING
AL2191	NW ALABAMA REGIONAL AIR	NA	L	04	1729 T ED CAMPBELL DR	MUSCLE SHOALS	AL	35661	34.7447797	-87.6196018	"2,780.00"	0.00		0104	ROBERT B. ADERHOLT	Active	BUILDING
AL2192	DOTHAN REGIONAL AIRPORT	NA	L	04	800 AIRPORT DR	DOTHAN	AL	36303	31.3161308	-85.4488139	850.00	0.00		0102	BARRY MOORE	Active	BUILDING
AL2194	18TH STREET NORTH BLDG	NA	L	04	1000 18TH ST N	BIRMINGHAM	AL	35203	33.5229439	-86.8152623	"96,278.00"	0.00		0107	TERRI A. SEWELL	Active	BUILDING
AL2197	LAKESHORE PARK PLAZA	NA	L	04	2204 LAKESHORE DR	BIRMINGHAM	AL	35209	33.4669260	-86.7817299	"7,580.00"	0.00		0106	GARY J. PALMER	Active	BUILDING
AL2203	1285 CARMICHAEL WAY	NA	L	04	1285 CARMICHAEL WAY	MONTGOMERY	AL	36106	32.3560300	-86.2398610	"12,347.00"	0.00		0102	BARRY MOORE	Active	BUILDING
AL2207	BIRMINGHAM SOCIAL SECURITY CTR	NA	L	04	"1200 REV. ABRAHAM WOODS, JR. BLVD."	BIRMINGHAM	AL	35285	34.7070600	-86.6956100	"5,87,528.00"	0.00	2000	0105	DALE W. STRONG	Active	BUILDING
AL2208	501 BUILDING	NA	L	04	501 MALL WAY	JASPER	AL	35501	33.8300000	-87.2851546	"8,919.00"	0.00		0104	ROBERT B. ADERHOLT	Active	BUILDING
AL2209	120 EXECUTIVE PARK PLACE BLDG	NA	L	04	120 EXECUTIVE PARK LN	SELMA	AL	36701	32.4263700	-87.0564600	"13,421.00"	0.00		0107	TERRI A. SEWELL	Active	BUILDING
AL2211	PARAMOUNT OFFICE CENTER	NA	L	04	1141 MONTLIMAR DR	MOBILE	AL	36609	30.6681300	-88.1326510	"5,548.00"	0.00		0101	JERRY L. CARL	Active	BUILDING
AL2213	PARKWEST CORPORATION CENTER	NA	L	04	3867 PINE LN	BESSEMER	AL	35022	33.3417100	-86.9149210	"6,889.00"	0.00		0106	GARY J. PALMER	Active	BUILDING
AL2214	TRUSSVILLE EXECUTIVE CENTER	NA	L	04	1972 GADSDEN HWY	BIRMINGHAM	AL	35235	33.6120700	-86.6267810	"12,847.00"	0.00		0106	GARY J. PALMER	Active	BUILDING
AL2215	18TH ST @ 10TH AVE NORTH BLDG	NA	L	04	920 18TH ST N	BIRMINGHAM	AL	35203	33.5226135	-86.8149960	"35,616.00"	0.00		0107	TERRI A. SEWELL	Active	BUILDING
AL2217	TSA - 6500 43RD AVE N	NA	L	04	6500 43RD AVE N	BIRMINGHAM	AL	35206	33.5627073	-86.7438824	"3,926.00"	0.00		0107	TERRI A. SEWELL	Active	BUILDING
AL2218	USAO	NA	L	04	131 CLAYTON ST	MONTGOMERY	AL	36104	32.3729700	-86.3113210	"57,815.00"	0.00		0102	BARRY MOORE	Active	BUILDING
AL2224	MCINTYRE OFFICE COMPLEX	NA	L	04	123 MCINTYRE ST	EVERGREEN	AL	36401	31.4279073	-86.9631180	"1,386.00"	0.00		0102	BARRY MOORE	Active	BUILDING
AL2226	SELFIELD INDUSTRIAL	NA	L	04	661 SELFIELD RD	SELMA	AL	36703	32.4363917	-86.9455313	"10,000.00"	0.00	2005	0107	TERRI A. SEWELL	Active	BUILDING
AL2235	ACADEMY WAY BLDG	NA	L	04	5475 ACADEMY WAY	BESSEMER	AL	35022	33.3640700	-87.0083910	"8,600.00"	0.00	2007	0107	TERRI A. SEWELL	Active	BUILDING
AL2237	N. ENTERPRISE DR BLDG	NA	L	04	204 N. ENTERPRISE DRIVE	GADSDEN	AL	35904	34.3388600	-86.2248500	"10,000.00"	0.00	2007	0104	ROBERT B. ADERHOLT	Active	BUILDING
AL2238	FEDERAL RESERVE BANK OF ATLANTA - BIRMINGHAM BRANCH	NA	L	04	LIBERTY PKWY	BIRMINGHAM	AL	35242	33.4765877	-86.6809520	"48,968.00"	0.00		0106	GARY J. PALMER	Active	BUILDING
AL2239	MONTGOMERY REGIONAL AIRPORT	NA	L	04	4445 SELMA HIGHWAY	MONTGOMERY	AL	36108	32.3076500	-86.3900000	"1,912.00"	0.00		0107	TERRI A. SEWELL	Active	BUILDING
AL2240	GARDNER MIDDLEBROOKS	NA	L	04	1119 GOVERNMENT ST	MOBILE	AL	36604	30.6832500	-88.0613210	"11,000.00"	0.00		0101	JERRY L. CARL	Active	BUILDING
AL2243	COMMERCE DRIVE BUILDING	NA	L	04	1908 COMMERCE AVE	CULLMAN	AL	35055	34.2052740	-86.8749615	"7,361.00"	0.00	2008	0104	ROBERT B. ADERHOLT	Active	BUILDING
AL2244	520 COTTON GIN	NA	L	04	520 COTTON GIN RD	MONTGOMERY	AL	36117	32.3730500	-86.1680910	"2,662.00"	0.00		0102	BARRY MOORE	Active	BUILDING
AL2245	TECHNOLOGY POINT	NA	L	04	7027 OLD MADISON PIKE NW	HUNTSVILLE	AL	35806	34.7132028	-86.6795886	"14,726.00"	0.00	2008	0105	DALE W. STRONG	Active	BUILDING
AL2249	RESEARCH PARK NORTH	NA	L	04	4970 RESEARCH DR NW	HUNTSVILLE	AL	35805	34.7317470	-86.6654370	"13,000.00"	0.00	1995	0105	DALE W. STRONG	Active	BUILDING
AL2260	CARMICHAEL ROAD	NA	L	04	4344 CARMICHAEL RD	MONTGOMERY	AL	36106	32.3586700	-86.2282410	"49,370.00"	0.00	2009	0102	BARRY MOORE	Active	BUILDING
AL2262	DAU BUILDING	NA	L	04	7115 OLD MADISON PIKE	HUNTSVILLE	AL	35806	34.7132500	-86.6855860	"62,500.00"	0.00	2009	0105	DALE W. STRONG	Active	BUILDING
AL2266	3371 SKYWAY DRIVE	NA	L	04	3371 SKYWAY DR	AUBURN	AL	36830	32.6139599	-85.4272385	"2,100.00"	0.00	2008	0103	MIKE ROGERS	Active	BUILDING
AL2267	INTERSTATE PARK	NA	L	04	500 INTERSTATE PARK DR	MONTGOMERY	AL	36109	32.3621900	-86.2411410	"2,471.00"	0.00	1982	0102	BARRY MOORE	Active	BUILDING
AL2271	LITTLE RIVER CANYON CENTER	NA	L	04	472 ALABAMA HIGHWAY 35	FORT PAYNE	AL	35967	34.3987370	-85.6343740	"5,300.00"	0.00	2008	0104	ROBERT B. ADERHOLT	Active	BUILDING
AL2273	WYNLAKES OFFICE PARK	NA	L	04	9500 WYNLAKES PL	MONTGOMERY	AL	36117	32.3395400	-86.1490710	"6,900.00"	0.00	2009	0103	MIKE ROGERS	Active	BUILDING
AL2278	MDA ARC	NA	L	04	6724 ODYSSEY DR NW	HUNTSVILLE	AL	35806	34.7219550	-86.6733203	"92,080.00"	0.00	2009	0105	DALE W. STRONG	Active	BUILDING
AL2281	STERLING CENTRE	NA	L	04	4121 CARMICHAEL RD	MONTGOMERY	AL	36106	32.3573706	-86.2411680	"42,660.00"	0.00	2005	0102	BARRY MOORE	Active	BUILDING
AL2285	"FINANCIAL CENTER, BIRMINGHAM, AL"	NA	L	04	505 20TH ST N	BIRMINGHAM	AL	35203	33.5182573	-86.8080940	"11,719.00"	0.00	2001	0107	TERRI A. SEWELL	Active	BUILDING
AL2287	"MADISON RESEARCH PARK WEST, MADISON, AL"	NA	L	04	RESEARCH BLVD	MADISON	AL	35758	34.6865000	-86.7272210	"36,993.00"	0.00	1990	0105	DALE W. STRONG	Active	BUILDING
AL2297	"TREASURY BUILDING, BIRMINGHAM, AL"	NA	L	04	836 15TH ST N	BIRMINGHAM	AL	35203	33.5189600	-86.8187010	"83,676.00"	0.00	2014	0107	TERRI A. SEWELL	Active	BUILDING
AL2299	MAYFAIR PROFESSIONAL CENTER	NA	L	04	4700 WHITESBURG DR SE	HUNTSVILLE	AL	35802	34.6955481	-86.5683170	"15,650.00"	0.00		0105	DALE W. STRONG	Active	BUILDING
AL2305	BB&T CENTRE	NA	L	04	41 W I-65 SERVICE RD N	MOBILE	AL	36608	30.6910900	-88.1274310	"5,055.00"	0.00		0101	JERRY L. CARL	Active	BUILDING
AL2307	FBI OFFICE/WAREHOUSE	NA	L	04	4345 HALLS MILL RD	MOBILE	AL	36693	30.6163600	-88.1408210	"9,325.00"	0.00		0101	JERRY L. CARL	Active	BUILDING
AL2308	"SSA BLDG, ANNISTON, AL"	NA	L	04	801 QUINTARD AVE	ANNISTON	AL	36201	33.6545684	-85.8264512	"11,420.00"	0.00		0103	MIKE ROGERS	Active	BUILDING
AL2309	BAYSIDE ORTHOPEDIC	NA	L	04	341 GREENO RD N	FAIRHOPE	AL	36532	30.5304600	-87.8866010	"5,132.00"	0.00		0101	JERRY L. CARL	Active	BUILDING
AL2310	ALEXANDER CITY	NA	L	04	63 ALIANT PKWY	ALEXANDER CITY	AL	35010	32.9195400	-85.9532110	"8,191.00"	0.00		0103	MIKE ROGERS	Active	BUILDING
AL2316	SSA/ODAR	NA	L	04	811 QUINTARD AVE	ANNISTON	AL	36201	33.6546835	-85.8264533	"1,506.00"	0.00		0103	MIKE ROGERS	Active	BUILDING
AL2324	AIRPORT CONCOURSE A	NA	L	04	5900 MESSER AIRPORT HWY	BIRMINGHAM	AL	35212	33.5576300	-86.7481110	"4,126.00"	0.00		0107	TERRI A. SEWELL	Active	BUILDING
AL2393	5123 RESEARCH DR NW	NA	L	04	5123 RESEARCH DR NW	HUNTSVILLE	AL	35805	34.7326600	-86.6686110	"13,670.00"	0.00	2011	0105	DALE W. STRONG	Active	BUILDING
AL2417	SSA BUILDING	NA	L	04	605 STANLEY AVE	ANDALUSIA	AL	36420	31.3020418	-86.4707291	"5,500.00"	0.00	2022	0102	BARRY MOORE	Active	BUILDING
AL2419	REDSTONE FED CREDIT UNION	NA	L	04	200 DAVIS CIR SW	HUNTSVILLE	AL	35801	34.7237190	-86.5859130	"9,996.00"	0.00		0105	DALE W. STRONG	Active	BUILDING
AL2480	RYAN-WALSH BUILDING	NA	L	04	150 N ROYAL ST	MOBILE	AL	36602	30.6951900	-88.0416710	"24,200.00"	0.00		0101	JERRY L. CARL	Active	BUILDING
AR0016	EL DORADO POST OFFICE/CTHS	NA	L	07	101 S JACKSON AVE	EL DORADO	AR	71730	33.2114760	-92.6606610	"28,184.00"	0.00	1931	0504	BRUCE WESTERMAN	Active	BUILDING
AR0021	JUDGE ISAAC C. PARKER FEDERAL BUILDING	NA	F	07	30 S 6TH ST	FORT SMITH	AR	72901	35.3863700	-94.4270110	"85,774.97"	"9,366.02"	1937	0503	STEVE WOMACK	Active	BUILDING
AR0030	RICHARD SHEPPARD ARNOLD UNITED STATES COURTHOUSE	LITTLE ROCK FED CPLX	F	07	600 W CAPITOL AVE	LITTLE ROCK	AR	72201	34.7457300	-92.2779010	"2,42,032.92"	"24,738.63"	1932	0502	J. FRENCH HILL	Active	BUILDING
AR0031	LITTLE ROCK OLD USPO/CTHS	NA	F	07	300 W 2ND ST	LITTLE ROCK	AR	72201	34.7478000	-92.2734410	"73,162.31"	0.00	1881	0502	J. FRENCH HILL	Active	BUILDING
AR0057	TEXARKANA USPO/COURTHOUSE	NA	F	07	500 N STATE LINE AVE	TEXARKANA	AR	71854	33.4251960	-94.0429790	"85,883.86"	"20,255.62"	1933	0504	BRUCE WESTERMAN	Active	BUILDING
AR0062	HOT SPRINGS POST OFFICE/CTHS	NA	F	07	100 RESERVE ST	HOT SPGS NATL PARK	AR	71901	34.5115398	-93.0539795	"62,382.95"	"6,140.45"	1961	0504	BRUCE WESTERMAN	Active	BUILDING
AR0063	LITTLE ROCK FEDERAL BUILDING	LITTLE ROCK FED CPLX	F	07	700 W CAPITOL AVE	LITTLE ROCK	AR	72201	34.7457000	-92.2786710	"3,47,475.23"	"20,540.58"	1961	0502	J. FRENCH HILL	Active	BUILDING
AR0066	JACOB TRIEBER FEDERAL BUILDING USPO & US COURTHOUSE	NA	F	07	617 WALNUT	HELENA-WEST HELENA	AR	72342	34.5286300	-90.5876610	"34,292.76"	"3,683.44"	1961	0501	"ERIC A. ""RICK"" CRAWFORD"	Active	BUILDING
AR0078	"GEORGE HOWARD, JR FEDERAL BLDG AND UNITED STATES COURTHOUSE"	NA	F	07	100 E 8TH AVE	PINE BLUFF	AR	71601	34.2214600	-92.0026710	"95,872.84"	"38,631.43"	1967	0504	BRUCE WESTERMAN	Active	BUILDING
AR0082	LITTLE ROCK FOB/CTHS PARKING LOT	LITTLE ROCK FED CPLX	F	07	622 W 4TH ST	LITTLE ROCK	AR	72201	34.7465113	-92.2774292	0.00	0.00	1985	0502	J. FRENCH HILL	Active	STRUCTURE
AR0084	JP HAMMERSCHMIDT FED BLDG/CTHS	NA	F	07	35 E MOUNTAIN ST	FAYETTEVILLE	AR	72701	36.0616700	-94.1584810	"57,352.86"	0.00	1974	0503	STEVE WOMACK	Active	BUILDING
AR0085	RICHARD SHEPPARD ARNOLD US COURTHOUSE ANNEX	LITTLE ROCK FED CPLX	F	07	600 W CAPITOL AVE	LITTLE ROCK	AR	72201	34.7457300	-92.2779010	"1,56,701.56"	0.00	2006	0502	J. FRENCH HILL	Active	BUILDING
AR1093	CENTRAL MALL AR1093	NA	L	07	5111 ROGERS AVE	FORT SMITH	AR	72903	35.3664600	-94.3752010	"12,503.00"	0.00		0503	STEVE WOMACK	Active	BUILDING
AR1116	308 S GAINES ST	NA	L	07	308 S GAINES ST	LITTLE ROCK	AR	72201	34.7467200	-92.2783410	"2,622.00"	0.00		0502	J. FRENCH HILL	Active	BUILDING
AR1125	AIR CARGO BLDG	NA	L	07	1001 TEMPLE ST	LITTLE ROCK	AR	72202	34.7345443	-92.2164534	"1,374.00"	0.00		0502	J. FRENCH HILL	Active	BUILDING
AR1127	EC GATHINGS FED BLDG/COURTHOUS	NA	L	07	615 S MAIN ST	JONESBORO	AR	72401	35.8373900	-90.7054310	"26,874.00"	0.00	1977	0501	"ERIC A. ""RICK"" CRAWFORD"	Active	BUILDING
AR1135	JUDGE J. SMITH HENLEY FEDERAL BUILDING	NA	L	07	402 N WALNUT ST	HARRISON	AR	72601	36.2332640	-93.1060070	"22,680.00"	0.00	1977	0503	STEVE WOMACK	Active	BUILDING
AR1170	GUARANTY PLAZA	NA	L	07	200 SHOPPINGWAY BLVD	WEST MEMPHIS	AR	72301	35.1650700	-90.1875310	"7,300.00"	0.00		0501	"ERIC A. ""RICK"" CRAWFORD"	Active	BUILDING
AR1173	TWO FINANCIAL CENTRE	NA	L	07	10825 FINANCIAL CENTRE PKWY	LITTLE ROCK	AR	72211	34.7459909	-92.4122727	"17,129.00"	0.00		0502	J. FRENCH HILL	Active	BUILDING
AR1182	METROPOLITAN NATIONAL BANK BLD	NA	L	07	425 W CAPITOL AVE	LITTLE ROCK	AR	72201	34.7440400	-92.2756610	"75,241.00"	0.00		0502	J. FRENCH HILL	Active	BUILDING
AR1184	OLD GREENWOOD BLDG.	NA	L	07	4905 GREENWOOD ROAD	FORT SMITH	AR	72903	35.3288759	-94.3869987	"6,555.00"	0.00		0503	STEVE WOMACK	Active	BUILDING
AR1192	PROVIDENTIAL LIFE BLDG	NA	L	07	2120 RIVERFRONT DR	LITTLE ROCK	AR	72202	34.7694200	-92.3077710	"17,878.00"	0.00		0502	J. FRENCH HILL	Active	BUILDING
AR1197	401 HARDIN RD	NA	L	07	401 HARDIN RD	LITTLE ROCK	AR	72211	34.7498800	-92.3978310	"19,005.00"	0.00		0502	J. FRENCH HILL	Active	BUILDING
AR1198	STEPHENS BLDG	NA	L	07	111 CENTER ST	LITTLE ROCK	AR	72201	34.7478400	-92.2724410	"7,418.00"	0.00		0502	J. FRENCH HILL	Active	BUILDING
AR1199	4TH & CHESTER ST PARKING LOT	NA	L	07	1017 W 4TH ST	LITTLE ROCK	AR	72201	34.7466295	-92.2819303	0.00	0.00		0502	J. FRENCH HILL	Active	STRUCTURE
AR1202	1200 CHERRY BROOK	NA	L	07	1200 CHERRY BROOK DR	LITTLE ROCK	AR	72211	34.7431700	-92.4104510	"9,315.00"	0.00		0502	J. FRENCH HILL	Active	BUILDING
AR1203	CITIZENS 1ST BK BLDG	NA	L	07	100 E PEACH ST	EL DORADO	AR	71730	33.2143800	-92.6633210	"5,832.00"	0.00		0504	BRUCE WESTERMAN	Active	BUILDING
AR1213	BUSINESS PARK BLDG D	NA	L	07	4991 OLD GREENWOOD RD	FORT SMITH	AR	72903	35.3355800	-94.3886610	"10,548.00"	0.00		0503	STEVE WOMACK	Active	BUILDING
AR1214	COUNTRY CLUB CENTER AR1214	NA	L	07	4700 S THOMPSON	SPRINGDALE	AR	72764	36.1438941	-94.1442210	"8,045.00"	0.00		0503	STEVE WOMACK	Active	BUILDING
AR1217	131 INDUSTRIAL PARK ROAD	NA	L	07	131 W INDUSTRIAL PARK RD	HARRISON	AR	72601	36.2507200	-93.1214710	"11,456.00"	0.00		0503	STEVE WOMACK	Active	BUILDING
AR1222	701 AIRPORT LOOP	NA	L	07	701 AIRPORT LOOP	SEARCY	AR	72143	35.2120200	-91.7311910	"6,827.00"	0.00		0502	J. FRENCH HILL	Active	BUILDING
AR1224	CENTERVIEW AND SHACKLEFORD	NA	L	07	24 SHACKLEFORD WEST BLVD	LITTLE ROCK	AR	72211	34.7421400	-92.3993810	"1,02,377.00"	0.00		0502	J. FRENCH HILL	Active	BUILDING
AR1227	3822 AIRPORT DRIVE PLAZA	NA	L	07	3822 AIRPORT PLZ	TEXARKANA	AR	71854	33.4580200	-94.0010710	"8,100.00"	0.00		0504	BRUCE WESTERMAN	Active	BUILDING
AR1228	NORTH POINT SUBDIVISION	NA	L	07	2887 N POINT CIR	FAYETTEVILLE	AR	72704	36.1046100	-94.1784810	"4,809.00"	0.00		0503	STEVE WOMACK	Active	BUILDING
AR1229	COLT SQUARE	NA	L	07	179 E COLT DR	FAYETTEVILLE	AR	72703	36.0931400	-94.1544810	"6,902.00"	0.00		0503	STEVE WOMACK	Active	BUILDING
AR1230	FIRST LITTLE ROCK PLAZA	NA	L	07	10800 FINANCIAL CENTRE PKWY	LITTLE ROCK	AR	72211	34.7491710	-92.3950845	"16,422.00"	0.00		0502	J. FRENCH HILL	Active	BUILDING
AR1234	COMMERCE PARK AR1234	NA	L	07	2153 E JOYCE BLVD	FAYETTEVILLE	AR	72703	36.1192900	-94.1306310	"11,417.00"	0.00	2001	0503	STEVE WOMACK	Active	BUILDING
AR1236	TELCOE FEDERAL CREDIT UNION	NA	L	07	820 S LOUISIANA ST	LITTLE ROCK	AR	72201	34.7411349	-92.2729950	"9,233.00"	0.00		0502	J. FRENCH HILL	Active	BUILDING
AR1237	ARVEST BANK	NA	L	07	75 N EAST AVE	FAYETTEVILLE	AR	72701	36.0631530	-94.1599755	"3,925.00"	0.00		0503	STEVE WOMACK	Active	BUILDING
AR1238	REGIONS BANK	NA	L	07	2400 E HIGHLAND DR	JONESBORO	AR	72401	35.8221500	-90.6761810	"2,745.00"	0.00		0501	"ERIC A. ""RICK"" CRAWFORD"	Active	BUILDING
AR1240	955 WALLACE KNOB RD	NA	L	07	955 WALLACE KNOB RD	MOUNTAIN HOME	AR	72653	36.3527200	-92.3751110	"3,608.00"	0.00		0501	"ERIC A. ""RICK"" CRAWFORD"	Active	BUILDING
AR1241	7030 TAYLOR AVENUE	NA	L	07	"7030 TAYLOR AVENUE, STE. 4"	FORT SMITH	AR	72916	35.2590727	-94.1928637	991.00	0.00		0503	STEVE WOMACK	Active	BUILDING
AR1243	1325 SOUTH DIVISION	NA	L	07	1325 S DIVISION ST	BLYTHEVILLE	AR	72315	35.9120274	-89.9187784	"5,038.00"	0.00		0501	"ERIC A. ""RICK"" CRAWFORD"	Active	BUILDING
AR1246	3608 E. KIEHL AVE	NA	L	07	3608 E KIEHL AVE	SHERWOOD	AR	72120	34.8316200	-92.1929510	"10,483.00"	0.00		0502	J. FRENCH HILL	Active	BUILDING
AR1247	1520 RIVERFRONT DRIVE	NA	L	07	1520 RIVERFRONT DR	LITTLE ROCK	AR	72202	34.7652100	-92.3062510	"21,656.00"	0.00		0502	J. FRENCH HILL	Active	BUILDING
AR1252	FORT SMITH REGIONAL AIRPORT	NA	L	07	6700 MCKENNON BLVD	FORT SMITH	AR	72903	35.3408800	-94.3582610	"1,163.00"	0.00		0503	STEVE WOMACK	Active	BUILDING
AR1253	LITTLE ROCK NATIONAL AIRPORT	NA	L	07	1 AIRPORT RD	LITTLE ROCK	AR	72202	34.7285200	-92.2203410	"5,486.00"	0.00		0502	J. FRENCH HILL	Active	BUILDING
AR1254	JD BAKER BLDG	NA	L	07	4501 E ROOSEVELT RD	LITTLE ROCK	AR	72206	34.7211400	-92.2249710	"6,042.00"	0.00		0502	J. FRENCH HILL	Active	BUILDING
AR1256	TEXARKANA REG AIRPORT TERMINAL	NA	L	07	201 AIRPORT DR	TEXARKANA	AR	71854	33.4575400	-93.9945410	"1,645.00"	0.00		0504	BRUCE WESTERMAN	Active	BUILDING
AR1262	414 PARKER AVENUE	NA	L	07	414 PARKER AVE	FORT SMITH	AR	72901	35.3862100	-94.4286010	"27,027.00"	0.00		0503	STEVE WOMACK	Active	BUILDING
AR1263	GREENWOOD ROAD BUSINESS PARK	NA	L	07	4977 OLD GREENWOOD RD	FORT SMITH	AR	72903	35.3351084	-94.3893843	"3,107.00"	0.00		0503	STEVE WOMACK	Active	BUILDING
AR1264	VICTORY BUILDING	NA	L	07	1401 W CAPITOL AVE	LITTLE ROCK	AR	72201	34.7458140	-92.2865985	"17,626.00"	0.00		0502	J. FRENCH HILL	Active	BUILDING
AR1266	ALICE L. WALTON TERMINAL BLDG.	NA	L	07	1 AIRPORT BLVD	BENTONVILLE	AR	72712	36.2756100	-94.2972410	"2,846.00"	0.00		0503	STEVE WOMACK	Active	BUILDING
AR1267	112 CORPORATE TERRACE	NA	L	07	112 CORPORATE TER	HOT SPGS NATL PARK	AR	71913	34.4537000	-93.0716710	"10,980.00"	0.00		0504	BRUCE WESTERMAN	Active	BUILDING
AR1268	CHRISTINA LANE	NA	L	07	2475 CHRISTINA LN	CONWAY	AR	72034	35.0677350	-92.4631290	"5,757.00"	0.00		0502	J. FRENCH HILL	Active	BUILDING
AR1269	EAST D. PARKWAY	NA	L	07	2708 E PARKWAY DR	RUSSELLVILLE	AR	72802	35.2818360	-93.1016925	"6,261.00"	0.00		0503	STEVE WOMACK	Active	BUILDING
AR1270	BANK OF AMERICA PLAZA AR1270	NA	L	07	200 W CAPITOL AVE	LITTLE ROCK	AR	72201	34.7444180	-92.2728366	"6,779.00"	0.00		0502	J. FRENCH HILL	Active	BUILDING
AR1273	10810 EXECUTIVE CENTER DRIVE	NA	L	07	10810 EXECUTIVE CENTER DR	LITTLE ROCK	AR	72211	34.7400500	-92.3969710	"8,352.00"	0.00		0502	J. FRENCH HILL	Active	BUILDING
AR1275	1020 LANTRIP ROAD	NA	L	07	1020 LANTRIP RD	SHERWOOD	AR	72120	34.8240600	-92.1982510	"10,640.00"	0.00		0502	J. FRENCH HILL	Active	BUILDING
AR1276	2600 WEST HILLSBORO	NA	L	07	2600 W HILLSBORO ST	EL DORADO	AR	71730	33.2084430	-92.7008820	"7,388.00"	0.00		0504	BRUCE WESTERMAN	Active	BUILDING
AR1278	151 DRY KILN RD	NA	L	07	151 DRY KILN RD	BATESVILLE	AR	72501	35.7734880	-91.6413380	"7,902.00"	0.00		0501	"ERIC A. ""RICK"" CRAWFORD"	Active	BUILDING
AR1279	FAULKNER NATURAL RESOURCE CTR	NA	L	07	110 S AMITY RD	CONWAY	AR	72032	35.0763000	-92.4123610	"6,995.00"	0.00		0502	J. FRENCH HILL	Active	BUILDING
AR1284	PINE BLUFF BUILDING	NA	L	07	3511 MARKET ST	PINE BLUFF	AR	71601	34.2136100	-91.9641410	"13,792.00"	0.00		0504	BRUCE WESTERMAN	Active	BUILDING
AR1289	193 HIGHWAY 278 EAST	NA	L	07	193 HIGHWAY 278 E	CAMDEN	AR	71701	33.6117240	-92.7670770	"2,101.00"	0.00	1992	0504	BRUCE WESTERMAN	Active	BUILDING
AR1291	2840 I-55 NORTH	NA	L	07	2840 I-55 NORTH	MARION	AR	72364	35.2082487	-90.2056722	"3,450.00"	0.00	2008	0501	"ERIC A. ""RICK"" CRAWFORD"	Active	BUILDING
AR1295	965 HOLIDAY DRIVE	NA	L	07	965 HOLIDAY DR	FORREST CITY	AR	72335	35.0414190	-90.7764435	"12,774.00"	0.00	2009	0501	"ERIC A. ""RICK"" CRAWFORD"	Active	BUILDING
AR1296	6801 DALLAS STREET	NA	L	07	6801 DALLAS STREET	FORT SMITH	AR	72803	35.3518830	-94.3586900	"15,079.00"	0.00	2009	0503	STEVE WOMACK	Active	BUILDING
AR1298	415 GARLAND AVENUE	NA	L	07	415 GARLAND AVE	FORT SMITH	AR	72901	35.3857900	-94.4290210	"7,633.00"	0.00	2010	0503	STEVE WOMACK	Active	BUILDING
AR1300	1809 LATORETTE DRIVE	NA	L	07	1809 LATOURETTE DR	JONESBORO	AR	72404	35.8010762	-90.6828322	"16,439.00"	0.00	2010	0501	"ERIC A. ""RICK"" CRAWFORD"	Active	BUILDING
AR1302	COTTONDALE PROFESSIONAL BLDG	NA	L	07	2228 COTTONDALE LN	LITTLE ROCK	AR	72202	34.7606100	-92.2992525	"7,719.00"	0.00	1975	0502	J. FRENCH HILL	Active	BUILDING
AR1303	201 WEST COURT STREET	NA	L	07	206 N ROCKINGCHAIR RD	PARAGOULD	AR	72450	36.0623000	-90.5489510	"4,900.00"	0.00	2001	0501	"ERIC A. ""RICK"" CRAWFORD"	Active	BUILDING
AR1304	FAYETTEVILLE	NA	L	07	3419 N PLAINVIEW AVE	FAYETTEVILLE	AR	72703	36.1134700	-94.1492810	"11,170.00"	0.00		0503	STEVE WOMACK	Active	BUILDING
AR1305	JEFFERSON AVE. MARKETPLACE	NA	L	07	4083 JEFFERSON AVE	TEXARKANA	AR	71854	33.4624647	-94.0291747	"1,436.00"	0.00		0504	BRUCE WESTERMAN	Active	BUILDING
AR1307	300 NORTH COLLEGE	NA	L	07	300 N COLLEGE AVE	FAYETTEVILLE	AR	72701	36.0665550	-94.1574510	440.00	0.00	1969	0503	STEVE WOMACK	Active	BUILDING
AR1308	KELLEY HIGHWAY	NA	L	07	4624 KELLEY HWY	FORT SMITH	AR	72904	35.4033500	-94.3796810	"13,816.00"	0.00	2014	0503	STEVE WOMACK	Active	BUILDING
AR1309	WESTLAKE CORPORATE PARK SEARCY BUILDING	NA	L	07	10809 EXECUTIVE CENTER DR	LITTLE ROCK	AR	72211	34.7388800	-92.3974710	"3,974.00"	0.00	1990	0502	J. FRENCH HILL	Active	BUILDING
AR1310	235 TILK ROAD	NA	L	07	235 TILK RD	CONWAY	AR	72032	35.0796500	-92.4154510	"5,171.00"	0.00	1985	0502	J. FRENCH HILL	Active	BUILDING
AR1311	112 W CENTER STREET	NA	L	07	112 W CENTER ST	FAYETTEVILLE	AR	72701	36.0626775	-94.1610297	"6,491.00"	0.00		0503	STEVE WOMACK	Active	BUILDING
AR1316	PARK CENTRE AR1316	NA	L	07	4375 N VANTAGE DR	FAYETTEVILLE	AR	72703	36.1291060	-94.1378410	"9,382.00"	0.00		0503	STEVE WOMACK	Active	BUILDING
AR1317	VANTAGE DRIVE OFFICE	NA	L	07	3930 N VANTAGE DR	FAYETTEVILLE	AR	72703	36.1224579	-94.1380435	"19,154.00"	0.00	2020	0503	STEVE WOMACK	Active	BUILDING
AR1318	490 E COLLEGE STREET	NA	L	07	490 E COLLEGE ST	BATESVILLE	AR	72501	35.7712980	-91.6496820	"9,698.00"	0.00		0501	"ERIC A. ""RICK"" CRAWFORD"	Active	BUILDING
AS6148	PAGO PLAZA BUILDING	NA	L	09	HIGHWAY 1	PAGO PAGO	AS	96799	-14.2898450	-170.7195770	"9,035.00"	0.00	1988	6098	AUMUA AMATA COLEMAN RADEWAGEN	Active	BUILDING
AS7752	PAGO PAGO AIRPORT	NA	L	09	TUTUILA ISLAND	PAGO PAGO	AS	96799	-14.3298030	-170.7138490	"1,680.00"	0.00	2000	6098	AUMUA AMATA COLEMAN RADEWAGEN	Active	BUILDING
AS7914	LETIATASI BUILDING	NA	L	09	1138 AUTAPINI	PAGO PAGO	AS	96799	-14.2912350	-170.7098450	"7,630.00"	0.00		6098	AUMUA AMATA COLEMAN RADEWAGEN	Active	BUILDING
AS8003	KDC UTULEI WAREHOUSE	NA	L	09	3003 UTULEI	PAGO PAGO	AS	96799	-14.3298030	-170.7138500	"3,707.00"	0.00		6098	AUMUA AMATA COLEMAN RADEWAGEN	Active	BUILDING
AS8346	CENTENNIAL OFFICE BUILDING	NA	L	09	1 UTULEI ROAD	PAGO PAGO	AS	96799	-14.3298030	-170.7138490	"4,297.00"	0.00		6098	AUMUA AMATA COLEMAN RADEWAGEN	Active	BUILDING
AZ0015	JAMES A. WALSH COURTHOUSE	NA	F	09	38 S SCOTT AVE	TUCSON	AZ	85701	32.2214100	-110.9701010	"68,468.27"	0.00	1930	0403	RUBEN GALLEGO	Active	BUILDING
AZ0051	GSA PARKING LOT - PHOENIX	NA	F	09	314 N 2ND AVE	PHOENIX	AZ	85003	33.4519526	-112.0764979	0.00	0.00	1962	0407	RAÚL M. GRIJALVA	Active	STRUCTURE
AZ0052	FEDERAL BUILDING & COURTHOUSE	NA	F	09	230 N 1ST AVE	PHOENIX	AZ	85003	33.4506276	-112.0752295	"2,88,625.16"	"32,031.36"	1962	0407	RAÚL M. GRIJALVA	Active	BUILDING
AZ0058	TUCSON FEDERAL BUILDING	NA	F	09	300 W CONGRESS ST	TUCSON	AZ	85701	32.2221500	-110.9756810	"1,15,803.78"	"19,682.28"	1974	0403	RUBEN GALLEGO	Active	BUILDING
AZ0303	SANDRA D. O'CONNOR COURTHOUSE	NA	F	09	401 W WASHINGTON ST	PHOENIX	AZ	85003	33.4476700	-112.0802410	"4,81,713.06"	"7,799.53"	2000	0407	RAÚL M. GRIJALVA	Active	BUILDING
AZ0307	EVO A. DECONCINI COURTHOUSE	NA	F	09	405 W CONGRESS ST	TUCSON	AZ	85701	32.2204200	-110.9765110	"3,48,667.88"	0.00	2000	0403	RUBEN GALLEGO	Active	BUILDING
AZ0327	SAN LUIS 1 - FMCSA INSPECTION CANOPY	SAN LUIS I LPOE	F	09	HIGHWAY 95 & INTERNATIONAL BORDER	SAN LUIS	AZ	85349	32.5011975	-114.7865408	"1,200.00"	0.00	2002	0403	RUBEN GALLEGO	Active	BUILDING
AZ0328	"SAN LUI 1 - DOT,FMCSA MODULAR BUILDING"	SAN LUIS I LPOE	F	09	HIGHWAY 95 & INTERNATIONAL BORDER	SAN LUIS	AZ	85349	32.5011975	-114.7865408	"1,488.00"	0.00	2002	0403	RUBEN GALLEGO	Active	BUILDING
AZ0329	FDA MODULAR BUILDING	SAN LUIS I LPOE	F	09	HIGHWAY 95 & INTERNATIONAL BORDER	SAN LUIS	AZ	85349	32.4906273	-114.7822545	"1,056.00"	0.00	2002	0403	RUBEN GALLEGO	Active	BUILDING
AZ0334	MARIPOSA LPOE - MAIN BLDG & PRIMARY	NOGALES WEST LPOE	F	09	200 N MARIPOSA RD	NOGALES	AZ	85621	31.3351254	-110.9676977	"42,614.69"	0.00	2013	0403	RUBEN GALLEGO	Active	BUILDING
AZ0336	SAN LUIS II MAIN BLDG	SAN LUIS II EAST LPO	F	09	S AVENUE E	SAN LUIS	AZ	85349	32.5157860	-114.7011390	"12,813.72"	0.00	2009	0403	RUBEN GALLEGO	Active	BUILDING
AZ0339	SAN LUIS 1 NORTH ANNEX PEDESTRIAN BLDG	SAN LUIS I LPOE	F	09	431 MAIN ST	SAN LUIS	AZ	85349	32.4866010	-114.7815880	"7,753.46"	0.00	2018	0403	RUBEN GALLEGO	Active	BUILDING
AZ0349	MARIPOSA LPOE - HEAD HSE&SEC INSP	NOGALES WEST LPOE	F	09	200 N MARIPOSA RD	NOGALES	AZ	85621	31.3351254	-110.9676977	"42,479.92"	0.00	2013	0403	RUBEN GALLEGO	Active	BUILDING
AZ0350	MARIPOSA LPOE TRUCK INSPECTION	NOGALES WEST LPOE	F	09	200 N MARIPOSA RD	NOGALES	AZ	85621	31.3351254	-110.9676977	"1,51,016.14"	0.00	2014	0403	RUBEN GALLEGO	Active	BUILDING
AZ0351	MARIPOSA LPOE - KENNEL	NOGALES WEST LPOE	F	09	200 N MARIPOSA RD	NOGALES	AZ	85621	31.3351254	-110.9676977	"8,039.94"	0.00	2013	0403	RUBEN GALLEGO	Active	BUILDING
AZ0352	MARIPOSA LPOE - OUT BOUND INSPECTION	NOGALES WEST LPOE	F	09	200 N MARIPOSA RD	NOGALES	AZ	85621	31.3351254	-110.9676977	"21,090.99"	0.00	2014	0403	RUBEN GALLEGO	Active	BUILDING
AZ0353	MARIPOSA LPOE - NII COMMERCIAL INSPECTION	NOGALES WEST LPOE	F	09	200 N MARIPOSA RD	NOGALES	AZ	85621	31.3351254	-110.9676977	"4,034.53"	0.00	2013	0403	RUBEN GALLEGO	Active	BUILDING
AZ0354	MARIPOSA LPOE - SEIZURE VAULT	NOGALES WEST LPOE	F	09	200 N MARIPOSA RD	NOGALES	AZ	85621	31.3351254	-110.9676977	"10,450.79"	0.00	2012	0403	RUBEN GALLEGO	Active	BUILDING
AZ0355	MARIPOSA LPOE MECHANICAL PLANT	NOGALES WEST LPOE	F	09	200 N MARIPOSA RD	NOGALES	AZ	85621	31.3351254	-110.9676977	"6,405.54"	0.00	2012	0403	RUBEN GALLEGO	Active	BUILDING
AZ0356	SAN LUIS II COMMERCIAL INSPECTION BLDG	SAN LUIS II EAST LPO	F	09	S AVENUE E	SAN LUIS	AZ	85349	32.5157860	-114.7011390	"35,534.89"	0.00	2008	0403	RUBEN GALLEGO	Active	BUILDING
AZ0357	SAN LUIS II BULK MATERIAL&STORAGE	SAN LUIS II EAST LPO	F	09	1375 S AVENUE E	SAN LUIS	AZ	85349	32.4802000	-114.7005920	"3,538.77"	0.00	2008	0403	RUBEN GALLEGO	Active	STRUCTURE
AZ0358	SAN LUIS II IMPOUND LOT	SAN LUIS II EAST LPO	F	09	1375 S AVENUE E	SAN LUIS	AZ	85349	32.4802000	-114.7005920	0.00	0.00	2009	0403	RUBEN GALLEGO	Active	LAND
AZ0359	SAN LUIS II COMMERCIAL EXIT CONTROL	SAN LUIS II EAST LPO	F	09	1375 S AVENUE E	SAN LUIS	AZ	85349	32.4802000	-114.7005920	"4,454.14"	0.00	2008	0403	RUBEN GALLEGO	Active	STRUCTURE
AZ0360	SAN LUIS II EXPORT CONTROL BOOTH	SAN LUIS II EAST LPO	F	09	1375 S AVENUE E	SAN LUIS	AZ	85349	32.4802000	-114.7005920	"13,247.06"	0.00	2008	0403	RUBEN GALLEGO	Active	STRUCTURE
AZ0361	SAN LUIS II PRIMARY INSP-BOOTH	SAN LUIS II EAST LPO	F	09	1375 S AVENUE E	SAN LUIS	AZ	85349	32.4802000	-114.7005920	"11,458.59"	0.00	2008	0403	RUBEN GALLEGO	Active	STRUCTURE
AZ0362	SAN LUIS II NII INSPECTION BLDG-HAZMAT ISO	SAN LUIS II EAST LPO	F	09	1375 S AVENUE E	SAN LUIS	AZ	85349	32.4802000	-114.7005920	"11,092.64"	0.00	2008	0403	RUBEN GALLEGO	Active	STRUCTURE
AZ0363	SAN LUIS II NON-INTRUSIVE INSPECTION GANTRY (NII)	SAN LUIS II EAST LPO	F	09	1375 S AVENUE E	SAN LUIS	AZ	85349	32.4658500	-114.7007300	"6,928.04"	0.00	2014	0403	RUBEN GALLEGO	Active	BUILDING
AZ0369	JOHN M. ROLL U.S. COURTHOUSE	NA	F	09	98 W 1ST ST	YUMA	AZ	85364	32.7258500	-114.6207710	"56,793.86"	0.00	2013	0403	RUBEN GALLEGO	Active	BUILDING
AZ0551	DECONCINI LPOE - CUSTOMS BLDG	NOGALES EAST LPOE	F	09	9 N GRAND AVE	NOGALES	AZ	85621	31.3329100	-110.9427780	"17,982.52"	0.00	1936	0403	RUBEN GALLEGO	Active	BUILDING
AZ0553	DECONCINI LPOE - MORLEY GATE	NOGALES EAST LPOE	F	09	9 N GRAND AVE	NOGALES	AZ	85621	31.3329100	-110.9427780	559.95	0.00	1930	0403	RUBEN GALLEGO	Active	BUILDING
AZ0554	BS HD HSE BLDG 2	NOGALES EAST LPOE	F	09	9 N GRAND AVE	NOGALES	AZ	85621	31.3348097	-110.9411952	"43,874.81"	0.00	1994	0403	RUBEN GALLEGO	Active	BUILDING
AZ0555	BS BLDG 1	NOGALES EAST LPOE	F	09	9 NORTH GRAND AVE	NOGALES	AZ	85621	31.3330239	-110.9425313	"35,610.72"	0.00	1994	0403	RUBEN GALLEGO	Active	BUILDING
AZ0556	DECONCINI LPOE BLDG 4 KENNEL	NOGALES EAST LPOE	F	09	9 N GRAND AVE	NOGALES	AZ	85621	31.3329100	-110.9427780	388.65	0.00	1994	0403	RUBEN GALLEGO	Active	BUILDING
AZ0559	DECONCINI LPOE OUTBOUND CANOPY (TIER 3)	NOGALES EAST LPOE	F	09	9 N GRAND AVE	NOGALES	AZ	85621	31.3328820	-110.9427810	"2,526.00"	0.00	2013	0403	RUBEN GALLEGO	Active	STRUCTURE
AZ0560	DECONCINI LPOE SEIZURE LOT	NOGALES EAST LPOE	F	09	300 W INTERNATIONAL STREET	NOGALES	AZ	85621	31.3328880	-110.9442820	825.00	0.00	2018	0403	RUBEN GALLEGO	Active	BUILDING
AZ0601	SASABE LPOE MAIN BLDG	SASABE LPOE	F	09	HIGHWAY 286 AND INTERNATIONAL BORDER	SASABE	AZ	85633	31.4859777	-111.5437357	"4,260.00"	0.00	1937	0403	RUBEN GALLEGO	Active	BUILDING
AZ0602	SASABE LPOE GARAGE	SASABE LPOE	F	09	HIGHWAY 286 AND INTERNATIONAL BORDER	SASABE	AZ	85633	31.4894000	-111.5425818	309.15	0.00	1937	0403	RUBEN GALLEGO	Active	BUILDING
AZ0603	SASABE LPOE HEADHOUSE BLDG 2	SASABE LPOE	F	09	HIGHWAY 286 AND INTERNATIONAL BORDER	SASABE	AZ	85633	31.4894000	-111.5425818	"2,940.83"	0.00	1994	0403	RUBEN GALLEGO	Active	BUILDING
AZ0604	TRUCK INSPECTION CANOPY	SASABE LPOE	F	09	AZ-286	SASABE	AZ	85633	31.4877330	-111.5430559	"7,000.87"	0.00	1994	0403	RUBEN GALLEGO	Active	BUILDING
AZ0611	RAUL HECTOR CASTRO LPOE MAIN BLDG	DOUGLAS BRDR STN	F	09	FIRST STREET AND PAN AMERICAN AVENUE	DOUGLAS	AZ	85607	31.3359225	-109.5601031	"15,166.98"	0.00	1933	0402	ELIJAH CRANE	Active	BUILDING
AZ0612	RAUL HECTOR CASTRO LPOE GARAGE	DOUGLAS BRDR STN	F	09	1ST ST & PAN AMERICAN AVENUE	DOUGLAS	AZ	85607	31.3359225	-109.5601031	920.08	0.00	1933	0402	ELIJAH CRANE	Active	BUILDING
AZ0613	RAUL HECTOR CASTRO LPOE TRUCK INSPECTION	DOUGLAS BRDR STN	F	09	1ST ST & PAN AMERICAN AVENUE	DOUGLAS	AZ	85607	31.3359225	-109.5601031	"29,246.04"	0.00	1993	0402	ELIJAH CRANE	Active	BUILDING
AZ0614	RAUL HECTOR CASTRO LPOE HD HSE BLDG 2	DOUGLAS BRDR STN	F	09	1ST ST & PAN AMERICAN AVENUE	DOUGLAS	AZ	85607	31.3359225	-109.5601031	"18,925.36"	0.00	1993	0402	ELIJAH CRANE	Active	BUILDING
AZ0616	DOUGLAS FMSCA ADMIN BLDG	DOUGLAS BRDR STN	F	09	FIRST STREET AND PAN AMERICAN AVENUE	DOUGLAS	AZ	85607	31.3352120	-109.5606059	"4,085.39"	0.00	2017	0402	ELIJAH CRANE	Active	BUILDING
AZ0618	DOUGLAS LPOE SUPPORT LOT	DOUGLAS BRDR STN	F	09	FIRST AVE & N. CUSTOMS AVE	DOUGLAS	AZ	85607	31.3340500	-109.5603050	0.00	0.00	2018	0402	ELIJAH CRANE	Active	BUILDING
AZ0631	BDR PATL SECTOR HQRS	BRDR PTRL SECTOR	F	09	1970 W AJO WAY	TUCSON	AZ	85713	32.1785700	-111.0069910	"6,988.76"	0.00	1965	0403	RUBEN GALLEGO	Active	BUILDING
AZ0632	BRDR PATL SECT HQ GA	BRDR PTRL SECTOR	F	09	1970 W AJO WAY	TUCSON	AZ	85713	32.1785700	-111.0069910	"6,057.65"	0.00	1965	0403	RUBEN GALLEGO	Active	BUILDING
AZ0670	LUKEVILLE LPOE MAIN BLDG	LUKEVILLE LPOE	F	09	190 HWY 85	LUKEVILLE	AZ	85341	31.8816214	-112.8160972	"16,312.90"	0.00	1976	0403	RUBEN GALLEGO	Active	BUILDING
AZ0671	LUKEVILLE LPOE LOADING DOCK	LUKEVILLE LPOE	F	09	190 HWY 85	LUKEVILLE	AZ	85341	31.8816214	-112.8160972	"6,024.76"	0.00	1976	0403	RUBEN GALLEGO	Active	BUILDING
AZ0672	LUKEVILLE LPOE SIEZED VEHICLE COMP	LUKEVILLE LPOE	F	09	190 HWY 85	LUKEVILLE	AZ	85341	31.8816214	-112.8160972	0.00	0.00	1976	0403	RUBEN GALLEGO	Active	STRUCTURE
AZ0673	LUKEVILLE LPOE RESIDENT A	LUKEVILLE LPOE	F	09	190 HWY 85	LUKEVILLE	AZ	85341	31.8816214	-112.8160972	"1,057.67"	0.00	1976	0403	RUBEN GALLEGO	Active	BUILDING
AZ0674	LUKEVILLE LPOE RESIDENT B	LUKEVILLE LPOE	F	09	190 HWY 85	LUKEVILLE	AZ	85341	31.8816214	-112.8160972	"1,057.67"	0.00	1976	0403	RUBEN GALLEGO	Active	BUILDING
AZ0675	LUKEVILLE LPOE RESIDENT C	LUKEVILLE LPOE	F	09	190 HWY 85	LUKEVILLE	AZ	85341	31.8816214	-112.8160972	"1,057.67"	0.00	1976	0403	RUBEN GALLEGO	Active	BUILDING
AZ0676	LUKEVILLE LPOE RESIDENT D	LUKEVILLE LPOE	F	09	190 HWY 85	LUKEVILLE	AZ	85341	31.8816214	-112.8160972	"1,057.67"	0.00	1976	0403	RUBEN GALLEGO	Active	BUILDING
AZ0677	LUKEVILLE LPOE RESIDENT E	LUKEVILLE LPOE	F	09	190 HWY 85	LUKEVILLE	AZ	85341	31.8816214	-112.8160972	"1,057.67"	0.00	1976	0403	RUBEN GALLEGO	Active	BUILDING
AZ0678	LUKEVILLE LPOE RESIDENT F	LUKEVILLE LPOE	F	09	190 HWY 85	LUKEVILLE	AZ	85341	31.8816214	-112.8160972	"1,057.67"	0.00	1976	0403	RUBEN GALLEGO	Active	BUILDING
AZ0679	LUKEVILLE LPOE RESIDENT G	LUKEVILLE LPOE	F	09	190 HWY 85	LUKEVILLE	AZ	85341	31.8816214	-112.8160972	"1,057.67"	0.00	1976	0403	RUBEN GALLEGO	Active	BUILDING
AZ0681	NACO LPOE MAIN BLDG	NACO LPOE	F	09	3867 S TOWNER AVE	NACO	AZ	85620	31.3345800	-109.9482910	"12,881.24"	0.00	1937	0402	ELIJAH CRANE	Active	BUILDING
AZ0682	NACO LPOE PRIMARY BUILDING	NACO LPOE	F	09	3867 S TOWNER AVE	NACO	AZ	85620	31.3345800	-109.9482910	"1,640.54"	0.00	1997	0402	ELIJAH CRANE	Active	BUILDING
AZ0683	NACO SECONDARY BUILDING	NACO LPOE	F	09	3867 S TOWNER AVE	NACO	AZ	85620	31.3345800	-109.9482910	"3,885.78"	0.00	1996	0402	ELIJAH CRANE	Active	BUILDING
AZ0684	NACO LPOE TRUCK INSPECTION COMPOUND	NACO LPOE	F	09	3867 S TOWNER AVE	NACO	AZ	85620	31.3345800	-109.9482910	"2,481.15"	0.00	1996	0402	ELIJAH CRANE	Active	BUILDING
AZ0686	NACO LPOE FMSCA ADMIN BLDG	NACO LPOE	F	09	3867 S TOWNER AVE	NACO	AZ	85620	31.3345800	-109.9482910	"3,124.71"	0.00	2017	0402	ELIJAH CRANE	Active	BUILDING
AZ0690	B S RESIDENT H	LUKEVILLE LPOE	F	09	190 HWY 85	LUKEVILLE	AZ	85341	31.8813390	-112.8156300	"1,057.67"	0.00	1976	0403	RUBEN GALLEGO	Active	BUILDING
AZ0691	B S RESIDENT I	LUKEVILLE LPOE	F	09	190 HWY 85	LUKEVILLE	AZ	85341	31.8813390	-112.8156300	"1,057.67"	0.00	1976	0403	RUBEN GALLEGO	Active	BUILDING
AZ0692	B S RESIDENT J	LUKEVILLE LPOE	F	09	190 HWY 85	LUKEVILLE	AZ	85341	31.8813390	-112.8156300	"1,057.67"	0.00	1976	0403	RUBEN GALLEGO	Active	BUILDING
AZ0698	B S PUMP HOUSE	LUKEVILLE LPOE	F	09	190 HWY 85	LUKEVILLE	AZ	85341	31.8813390	-112.8156300	332.44	0.00	1976	0403	RUBEN GALLEGO	Active	BUILDING
AZ0704	SAN LUIS 1 LPOE MAIN BUILDING	SAN LUIS I LPOE	F	09	HIGHWAY 95 & INTERNATIONAL BORDER	SAN LUIS	AZ	85349	32.4906273	-114.7822545	"22,106.07"	0.00	1984	0403	RUBEN GALLEGO	Active	BUILDING
AZ0705	SAN LUIS 1 LPOE COMMERCIAL BLDG	SAN LUIS I LPOE	F	09	HIGHWAY 95 & INTERNATIONAL BORDER	SAN LUIS	AZ	85349	32.4906273	-114.7822545	"13,186.23"	0.00	1984	0403	RUBEN GALLEGO	Active	BUILDING
AZ0706	SAN LUIS 1 TRUCK INSPECTION FACILITY	SAN LUIS I LPOE	F	09	HIGHWAY 95 & INTERNATIONAL BORDER	SAN LUIS	AZ	85349	32.4906273	-114.7822545	"14,752.71"	0.00	1984	0403	RUBEN GALLEGO	Active	STRUCTURE
AZ0710	SEWAGE TREATMENT PLANT	LUKEVILLE LPOE	F	09	INT'L BOUNDARY LINE	LUKEVILLE	AZ	85341	31.9182818	-112.8543727	625.00	0.00	1976	0403	RUBEN GALLEGO	Active	STRUCTURE
AZ2086	CIS BUILDING - PHOENIX	NA	L	09	1330 S 16TH ST	PHOENIX	AZ	85034	33.4352200	-112.0493010	"53,314.00"	0.00	2009	0407	RAÚL M. GRIJALVA	Active	BUILDING
AZ5208	2256 N. GEMINI DR. BLDG 3	NA	L	09	2255 N GEMINI DR	FLAGSTAFF	AZ	86001	35.2155100	-111.6328210	"16,552.00"	0.00	1975	0401	DAVID SCHWEIKERT	Active	BUILDING
AZ5427	BLDGS.4&5	NA	L	09	2255 N GEMINI DR	FLAGSTAFF	AZ	86001	35.2155100	-111.6328210	"33,010.00"	0.00	1977	0401	DAVID SCHWEIKERT	Active	BUILDING
AZ5896	3737 N. 7TH STREET	NA	L	09	3737 N 7TH ST	PHOENIX	AZ	85014	33.4913700	-112.0640110	"17,834.00"	0.00	1984	0409	PAUL A. GOSAR	Active	BUILDING
AZ5952	2324 E. MCDOWELL RD.	NA	L	09	2324 E MCDOWELL RD	PHOENIX	AZ	85006	33.4665300	-112.0316310	"32,162.00"	0.00		0407	RAÚL M. GRIJALVA	Active	BUILDING
AZ5983	MONTEZUMA CASTLE NPS MAIN. FAC	NA	L	09	353 W MIDDLE VERDE RD	CAMP VERDE	AZ	86322	34.6061348	-111.8589227	"2,300.00"	0.00	1989	0401	DAVID SCHWEIKERT	Active	BUILDING
AZ6040	3636 NO. CENTRAL AVE	NA	L	09	3636 N CENTRAL AVE	PHOENIX	AZ	85012	33.4904900	-112.0749410	"39,109.00"	0.00		0407	RAÚL M. GRIJALVA	Active	BUILDING
AZ6246	I.H.S. BUILDING	NA	L	09	I.H.S. BUILDING	SAINT MICHAELS	AZ	86511	35.6552455	-109.1002727	"40,924.00"	0.00	1988	0401	DAVID SCHWEIKERT	Active	BUILDING
AZ6285	GREAT AMERICAN TWR	NA	L	09	3200 N CENTRAL AVE	PHOENIX	AZ	85012	33.4855400	-112.0744710	"9,620.00"	0.00	1985	0407	RAÚL M. GRIJALVA	Active	BUILDING
AZ6294	ORACLE AT THE RIVER	NA	L	09	4720 N ORACLE RD	TUCSON	AZ	85705	32.2920000	-110.9774410	"36,108.00"	0.00	1982	0402	ELIJAH CRANE	Active	BUILDING
AZ6463	2035 N. CENTRAL AVEN	NA	L	09	2035 N CENTRAL AVE	PHOENIX	AZ	85004	33.4703100	-112.0727910	"57,079.00"	0.00	1973	0407	RAÚL M. GRIJALVA	Active	BUILDING
AZ6584	691 SCENIC DRIVE	NA	L	09	691 SCENIC VIEW RD	PAGE	AZ	86040	36.9188560	-111.4756776	"28,650.00"	0.00	1992	0401	DAVID SCHWEIKERT	Active	BUILDING
AZ6624	123 N. SAN FRANCISCO	NA	L	09	123 N SAN FRANCISCO ST	FLAGSTAFF	AZ	86001	35.1989400	-111.6473910	"22,408.00"	0.00	1968	0401	DAVID SCHWEIKERT	Active	BUILDING
AZ6659	DHS/ICE BUILDING	NA	L	09	AZ 86	SELLS	AZ	85634	32.0952265	-112.0616022	"16,701.00"	0.00	1994	0403	RUBEN GALLEGO	Active	BUILDING
AZ6734	CITIBANK TOWERS	NA	L	09	S CHURCH AVE	TUCSON	AZ	85701	32.2194205	-110.9724511	"4,400.00"	0.00	1986	0403	RUBEN GALLEGO	Active	BUILDING
AZ6752	527 MAIN STREET	NA	L	09	527 S MAIN ST	CAMP VERDE	AZ	86322	34.5617500	-111.8530710	"2,300.00"	0.00		0401	DAVID SCHWEIKERT	Active	BUILDING
AZ6769	BLM NAT'L TRAIN CTR	NA	L	09	9828 N 31ST AVE	PHOENIX	AZ	85051	33.5753900	-112.1270410	"72,465.00"	0.00	1998	0406	JUAN CISCOMANI	Active	BUILDING
AZ6774	TSEYI SHOPPING CENTER	NA	L	09	HIGHWAY 191	CHINLE	AZ	86503	36.0918540	-109.6237101	"2,185.00"	"2,185.00"	1987	0401	DAVID SCHWEIKERT	Active	BUILDING
AZ6779	1616 E INDIAN SCHOOL	NA	L	09	1616 E INDIAN SCHOOL RD	PHOENIX	AZ	85016	33.4950700	-112.0465310	"10,795.00"	0.00		0409	PAUL A. GOSAR	Active	BUILDING
AZ6786	2250 N PINAL AVE	NA	L	09	2250 N PINAL AVE	CASA GRANDE	AZ	85122	32.9192900	-111.7557710	0.00	0.00	1983	0401	DAVID SCHWEIKERT	Active	BUILDING
AZ6831	PARK PLACE TOWERS	NA	L	09	63 E MAIN ST	MESA	AZ	85201	33.4147000	-111.8292910	"4,384.00"	0.00	1993	0409	PAUL A. GOSAR	Active	BUILDING
AZ6886	SOUTHERN AVENUE OFFICE PLAZA	NA	L	09	1818 E SOUTHERN AVE	MESA	AZ	85204	33.3940400	-111.7918410	"24,853.00"	0.00	2003	0405	ANDY BIGGS	Active	BUILDING
AZ6946	3300 TOWER	NA	L	09	3300 N CENTRAL AVE	PHOENIX	AZ	85012	33.4868700	-112.0751110	"22,915.00"	0.00	1980	0407	RAÚL M. GRIJALVA	Active	BUILDING
AZ6972	40 N. CENTRAL AVE	NA	L	09	40 N CENTRAL AVE	PHOENIX	AZ	85004	33.4490200	-112.0741810	"1,72,531.00"	0.00	1992	0407	RAÚL M. GRIJALVA	Active	BUILDING
AZ7016	"CORNER OF TRAILS,HWY89"	NA	L	09	6400 N US HIGHWAY 89	FLAGSTAFF	AZ	86004	35.2390497	-111.5715106	"6,760.00"	0.00		0401	DAVID SCHWEIKERT	Active	BUILDING
AZ7112	5907 W. KINGS AVENUE	NA	L	09	5907 W KINGS AVE	GLENDALE	AZ	85306	33.6349100	-112.1872010	"17,334.00"	0.00	2000	0408	DEBBIE LESKO	Active	BUILDING
AZ7115	3808 NORTH 1ST AVENUE	NA	L	09	3808 N 1ST AVE	TUCSON	AZ	85719	32.2764100	-110.9599310	"19,140.00"	0.00		0402	ELIJAH CRANE	Active	BUILDING
AZ7123	205 N. MARINA	NA	L	09	205 N MARINA ST	PRESCOTT	AZ	86301	34.5441500	-112.4668210	"9,340.00"	0.00	2001	0404	GREG STANTON	Active	BUILDING
AZ7128	396 N. CAMINO MERCADO	NA	L	09	396 N CAMINO MERCADO	CASA GRANDE	AZ	85122	32.8767030	-111.6893700	"16,843.00"	0.00	1999	0401	DAVID SCHWEIKERT	Active	BUILDING
AZ7134	AIR LIBRE AND TATUM BOULEVARD	NA	L	09	16241 N TATUM BLVD	PHOENIX	AZ	85032	33.6349900	-111.9771510	"23,462.00"	0.00	2001	0406	JUAN CISCOMANI	Active	BUILDING
AZ7168	600 15TH ST.	NA	L	09	600 E 15TH ST	DOUGLAS	AZ	85607	31.3496185	-109.5521902	"5,100.00"	0.00	2001	0402	ELIJAH CRANE	Active	BUILDING
AZ7200	16009 N. 81ST STREET	NA	L	09	16009 N 81ST ST	SCOTTSDALE	AZ	85260	33.6311700	-111.9054010	"8,897.00"	0.00	2002	0406	JUAN CISCOMANI	Active	BUILDING
AZ7224	PASEO DE YUCATAN	NA	L	09	141 PASEO DE YUCATAN	RIO RICO	AZ	85648	31.4357580	-110.9674800	"19,307.00"	0.00	2001	0403	RUBEN GALLEGO	Active	BUILDING
AZ7258	NORTHWEST CORPORATE CENTER	NA	L	09	7400 N ORACLE RD	TUCSON	AZ	85704	32.3416440	-110.9761875	"42,065.00"	0.00	1984	0402	ELIJAH CRANE	Active	BUILDING
AZ7273	256 SOUTH 2ND AVENUE	NA	L	09	256 S 2ND AVE	YUMA	AZ	85364	32.7220300	-114.6224810	"5,495.00"	0.00	1994	0403	RUBEN GALLEGO	Active	BUILDING
AZ7274	3838 N. CENTRAL AVENUE	NA	L	09	3838 N CENTRAL AVE	PHOENIX	AZ	85012	33.4924406	-112.0739966	"25,432.00"	0.00		0407	RAÚL M. GRIJALVA	Active	BUILDING
AZ7278	CHANDLER 101 BUSINESS CENTER	NA	L	09	2545 W FRYE RD	CHANDLER	AZ	85224	33.2973600	-111.8867210	"3,879.00"	0.00		0409	PAUL A. GOSAR	Active	BUILDING
AZ7281	BUILDING 6	NA	L	09	2255 N GEMINI DR	FLAGSTAFF	AZ	86001	35.2155100	-111.6328210	"27,525.00"	0.00	2002	0401	DAVID SCHWEIKERT	Active	BUILDING
AZ7310	2700 N. CENTRAL	NA	L	09	2700 N CENTRAL AVE	PHOENIX	AZ	85004	33.4779500	-112.0745210	"22,355.00"	0.00	1985	0407	RAÚL M. GRIJALVA	Active	BUILDING
AZ7319	2600 N. CENTRAL AVE.	NA	L	09	2600 N CENTRAL AVE	PHOENIX	AZ	85004	33.4771600	-112.0746110	"92,820.00"	0.00	1981	0407	RAÚL M. GRIJALVA	Active	BUILDING
AZ7346	ONE NORTH CENTRAL	NA	L	09	1 N CENTRAL AVE	PHOENIX	AZ	85004	33.4486402	-112.0737679	"37,215.00"	0.00	2001	0407	RAÚL M. GRIJALVA	Active	BUILDING
AZ7353	CITY SQUARE	NA	L	09	4000 N CENTRAL AVE	PHOENIX	AZ	85012	33.4926900	-112.0752710	"38,076.00"	0.00	1966	0407	RAÚL M. GRIJALVA	Active	BUILDING
AZ7400	2334 E. HIGHWAY 80	NA	L	09	2334 E HIGHWAY 80	DOUGLAS	AZ	85607	31.3826601	-109.5173287	"16,151.00"	0.00	2003	0402	ELIJAH CRANE	Active	BUILDING
AZ7402	870 W. SHELL ROAD	NA	L	09	870 W SHELL DR	NOGALES	AZ	85621	31.3647264	-110.9489835	"2,506.00"	0.00	2001	0403	RUBEN GALLEGO	Active	BUILDING
AZ7420	775 E. 39TH ST.	NA	L	09	775 E 39TH ST	YUMA	AZ	85365	32.6566238	-114.6133198	"9,100.00"	0.00	2003	0404	GREG STANTON	Active	BUILDING
AZ7432	SKY HARBOR AIRPORT	NA	L	09	3400 E SKY HARBOR BLVD	PHOENIX	AZ	85034	33.4357288	-112.0087569	"19,228.00"	0.00	1962	0407	RAÚL M. GRIJALVA	Active	BUILDING
AZ7433	850 W. ADAMS STREET	NA	L	09	850 W ADAMS ST	PHOENIX	AZ	85007	33.4497800	-112.0844010	"47,947.00"	0.00	2003	0407	RAÚL M. GRIJALVA	Active	BUILDING
AZ7451	TOWNLEY BUSINESS PARK	NA	L	09	8836 N 23RD AVE	PHOENIX	AZ	85021	33.5647600	-112.1095510	"10,000.00"	0.00		0409	PAUL A. GOSAR	Active	BUILDING
AZ7453	LAUGHLIN-BULLHEAD INTERNATIONAL AIRPORT	NA	L	09	2550 LAUGHLIN VIEW DR	BULLHEAD CITY	AZ	86429	35.1617310	-114.5537235	"1,127.00"	0.00		0404	GREG STANTON	Active	BUILDING
AZ7468	TSA 'ON' AIRPORT	NA	L	09	7250 S TUCSON BLVD	TUCSON	AZ	85756	32.1209547	-110.9375496	"4,665.00"	0.00	1974	0403	RUBEN GALLEGO	Active	BUILDING
AZ7469	YUMA TSA ON AIRPORT	NA	L	09	2191 E 32ND ST	YUMA	AZ	85365	32.6686100	-114.5989710	"1,077.00"	0.00	2000	0404	GREG STANTON	Active	BUILDING
AZ7498	PAGE AIRPORT	NA	L	09	238 10TH AVE	PAGE	AZ	86040	36.9243720	-111.4504965	462.00	0.00	1997	0401	DAVID SCHWEIKERT	Active	BUILDING
AZ7499	PRESCOTT MUNICIPAL AIRPORT	NA	L	09	6500 MACCURDY DR	PRESCOTT	AZ	86301	34.6496652	-112.4274679	742.00	0.00	1972	0404	GREG STANTON	Active	BUILDING
AZ7500	FLAGSTAFF PULLIAM AIRPORT	NA	L	09	6200 S PULLIAM DR	FLAGSTAFF	AZ	86001	35.1403768	-111.6763479	"1,000.00"	0.00	1993	0401	DAVID SCHWEIKERT	Active	BUILDING
AZ7539	CITY CENTER EXECUTIVE PLAZA	NA	L	09	94 ACOMA BLVD S	LAKE HAVASU CITY	AZ	86403	34.4761300	-114.3176910	"5,137.00"	0.00	2002	0404	GREG STANTON	Active	BUILDING
AZ7556	RIO NUEVO PLAZA	NA	L	09	201 N BONITA AVE	TUCSON	AZ	85745	32.2233150	-110.9828568	"39,109.00"	0.00	2002	0403	RUBEN GALLEGO	Active	BUILDING
AZ7562	CONGRESS PLAZA	NA	L	09	407 W CONGRESS ST	TUCSON	AZ	85701	32.2207500	-110.9775110	"52,850.00"	0.00	1983	0403	RUBEN GALLEGO	Active	BUILDING
AZ7571	DIAMOND PLAZA	NA	L	09	625 E WHITE MOUNTAIN BLVD	PINETOP	AZ	85935	34.1309500	-109.9475810	"3,723.00"	0.00	2003	0401	DAVID SCHWEIKERT	Active	BUILDING
AZ7572	SHOW LOW BUSINESS PARK	NA	L	09	2500 E COOLEY ST	SHOW LOW	AZ	85901	34.2532342	-110.0178373	"4,073.00"	0.00	2001	0401	DAVID SCHWEIKERT	Active	BUILDING
AZ7574	COLLIERS CENTER	NA	L	09	201 E WASHINGTON ST	PHOENIX	AZ	85004	33.4474800	-112.0709010	0.00	0.00	2000	0407	RAÚL M. GRIJALVA	Active	BUILDING
AZ7606	STATE PORT ANNEX	NA	L	09	N MARIPOSA RD	NOGALES	AZ	85621	31.3415592	-110.9671575	"11,325.29"	0.00	2003	0403	RUBEN GALLEGO	Active	BUILDING
AZ7630	1760 MASTICK WAY	NA	L	09	1760 N MASTICK WAY	NOGALES	AZ	85621	31.3640820	-110.9331900	"3,474.00"	0.00	2006	0403	RUBEN GALLEGO	Active	BUILDING
AZ7631	51 WEST THIRD STREET	NA	L	09	51 W 3RD ST	TEMPE	AZ	85281	33.4269000	-111.9409310	"4,176.00"	0.00	1986	0409	PAUL A. GOSAR	Active	BUILDING
AZ7638	EASTGATE BUSINESS PARK	NA	L	09	702 W JEROME AVE	MESA	AZ	85210	33.3817740	-111.8463390	"23,084.00"	0.00	2005	0409	PAUL A. GOSAR	Active	BUILDING
AZ7646	253 WEST SUPERSTITION	NA	L	09	253 W SUPERSTITION BLVD	APACHE JUNCTION	AZ	85120	33.4223218	-111.5488066	"13,500.00"	0.00	2005	0404	GREG STANTON	Active	BUILDING
AZ7647	FLAGSTAFF AIR PARK	NA	L	09	5900 S PULLIAM DR	FLAGSTAFF	AZ	86005	35.1418320	-111.6770220	"9,307.00"	0.00	2006	0401	DAVID SCHWEIKERT	Active	BUILDING
AZ7677	FOOTHILLS OFFICE PLAZA	NA	L	09	2120 W INA RD	TUCSON	AZ	85741	32.3374200	-111.0131310	"16,341.00"	0.00	1983	0402	ELIJAH CRANE	Active	BUILDING
AZ7681	"HANGAR THREE, LLC BUILDING"	NA	L	09	15033 N 74TH ST	SCOTTSDALE	AZ	85260	33.6244400	-111.9193410	"11,586.00"	0.00	1984	0406	JUAN CISCOMANI	Active	BUILDING
AZ7682	TUCSON INTL AIRPORT	NA	L	09	1921 E FLIGHTLINE DR	TUCSON	AZ	85756	32.1252500	-110.9445261	"6,300.00"	0.00		0403	RUBEN GALLEGO	Active	BUILDING
AZ7696	GROVE PARKWAY COURT	NA	L	09	1553 W TODD DR	TEMPE	AZ	85283	33.3521700	-111.9649610	"4,488.00"	0.00	1999	0409	PAUL A. GOSAR	Active	BUILDING
AZ7705	650 SOUTH 14TH AVE	NA	L	09	650 S 14TH AVE	SAFFORD	AZ	85546	32.8329400	-109.7250710	"3,271.00"	0.00	2006	0401	DAVID SCHWEIKERT	Active	BUILDING
AZ7706	SHOW LOW REGIONAL AIRPORT	NA	L	09	3150 E AIRPORT LOOP	SHOW LOW	AZ	85901	34.2637013	-110.0075590	513.00	0.00	1999	0401	DAVID SCHWEIKERT	Active	BUILDING
AZ7708	LAW ENFORCEMENT OFFICE	NA	L	09	400 PIPE SPRINGS RD	FREDONIA	AZ	86022	36.8576910	-112.7355083	"1,500.00"	0.00		0401	DAVID SCHWEIKERT	Active	BUILDING
AZ7748	4041 CENTRAL PLAZA	NA	L	09	4041 N CENTRAL AVE	PHOENIX	AZ	85012	33.4939200	-112.0726910	"1,45,259.00"	"13,624.99"	1981	0409	PAUL A. GOSAR	Active	BUILDING
AZ7757	MOUNTAIN PLAZA	NA	L	09	1201 E COOLEY ST	SHOW LOW	AZ	85901	34.2529700	-110.0290710	460.00	460.00	1973	0401	DAVID SCHWEIKERT	Active	BUILDING
AZ7775	TUCSON INTERNATIONAL AIRPORT ANNEX	NA	L	09	2110 E AIRPORT DR	TUCSON	AZ	85756	32.1270500	-110.9414510	"5,273.00"	0.00		0403	RUBEN GALLEGO	Active	BUILDING
AZ7779	PHXMESA GATEWAY AIRPORT	NA	L	09	6033 S SOSSAMAN RD	MESA	AZ	85212	33.3071915	-111.6700867	"2,760.00"	0.00		0405	ANDY BIGGS	Active	BUILDING
AZ7810	SALT RIVER PROJECT	NA	L	09	1521 N PROJECT DR	TEMPE	AZ	85281	33.4474750	-111.9527850	"4,418.00"	0.00		0409	PAUL A. GOSAR	Active	BUILDING
AZ7828	2020 EAST BELL ROAD	NA	L	09	2020 E BELL RD	PHOENIX	AZ	85022	33.6414330	-112.0384215	"21,750.00"	0.00		0406	JUAN CISCOMANI	Active	BUILDING
AZ7837	2285 SOUTH FOURTH AVE	NA	L	09	2285 S 4TH AVE	YUMA	AZ	85364	32.6862000	-114.6238710	"7,882.00"	0.00	2005	0403	RUBEN GALLEGO	Active	BUILDING
AZ7854	COLONIAL CENTER	NA	L	09	3439 E UNIVERSITY DR	PHOENIX	AZ	85034	33.4168900	-112.0059310	"78,709.00"	0.00	2007	0407	RAÚL M. GRIJALVA	Active	BUILDING
AZ7861	FBI TUCSON RA BUILDING	NA	L	09	275 N COMMERCE PARK LOOP	TUCSON	AZ	85745	32.2240200	-110.9859110	"84,353.00"	0.00	2012	0403	RUBEN GALLEGO	Active	BUILDING
AZ7875	2211 OAKMONT WAY	NA	L	09	2211 OAKMONT DR	SIERRA VISTA	AZ	85635	31.5294120	-110.2652910	"10,727.00"	0.00	2008	0402	ELIJAH CRANE	Active	BUILDING
AZ7887	IRS GLENDALE	NA	L	09	7350 W CAMINO SAN XAVIER	GLENDALE	AZ	85308	33.6415500	-112.2167475	"18,963.00"	0.00	2008	0408	DEBBIE LESKO	Active	BUILDING
AZ7892	88 WEST 38TH STREET	NA	L	09	88 W 38TH ST	SOUTH TUCSON	AZ	85713	32.1909100	-110.9694610	"13,000.00"	0.00	2008	0403	RUBEN GALLEGO	Active	BUILDING
AZ7902	FBI PHOENIX BUILDING	NA	L	09	21711 N 7TH ST	PHOENIX	AZ	85024	33.6829400	-112.0639610	"2,10,202.00"	0.00		0406	JUAN CISCOMANI	Active	BUILDING
AZ7926	7431 EAST 30TH STREET	NA	L	09	7431 E 30TH ST	YUMA	AZ	85365	32.6730200	-114.5058910	"23,710.00"	0.00	2010	0404	GREG STANTON	Active	BUILDING
AZ7927	7102 EAST 30TH STREET (YUMA COMMERCE CENTER)	NA	L	09	7102 E 30TH ST	YUMA	AZ	85365	32.6743100	-114.5112410	"11,627.00"	0.00	2010	0404	GREG STANTON	Active	BUILDING
AZ7942	1824 S THOMPSON ST	NA	L	09	1824 S THOMPSON ST	FLAGSTAFF	AZ	86001	35.1862300	-111.6746710	"23,400.00"	0.00	2004	0401	DAVID SCHWEIKERT	Active	BUILDING
AZ7956	WOODLANDS CENTRE - FLAGSTAFF	NA	L	09	1611 S PLAZA WAY	FLAGSTAFF	AZ	86001	35.1862920	-111.6676800	"11,806.00"	0.00	1997	0401	DAVID SCHWEIKERT	Active	BUILDING
AZ7962	GATEWAY THREE	NA	L	09	410 N 44TH ST	PHOENIX	AZ	85008	33.4528830	-111.9900915	"25,784.00"	0.00	1988	0407	RAÚL M. GRIJALVA	Active	BUILDING
AZ7964	GRACE COURT	NA	L	09	250 N 7TH AVE	PHOENIX	AZ	85007	33.4506200	-112.0836410	"49,277.00"	0.00	2007	0407	RAÚL M. GRIJALVA	Active	BUILDING
AZ7974	CIMARRON XVI	NA	L	09	6335 S DOWNWIND	MESA	AZ	85212	33.3033930	-111.6627390	"33,088.00"	0.00	2005	0405	ANDY BIGGS	Active	BUILDING
AZ7976	RIVERFRONT PLAZA OFFICES	NA	L	09	1360 W IRVINGTON RD	TUCSON	AZ	85746	32.1645800	-110.9937210	"4,725.00"	0.00	1992	0403	RUBEN GALLEGO	Active	BUILDING
AZ7977	SSA BUILDING - FLAGSTAFF	NA	L	09	2715 S WOODLANDS VILLAGE BLVD	FLAGSTAFF	AZ	86001	35.1755000	-111.6684810	"7,480.00"	0.00	2000	0401	DAVID SCHWEIKERT	Active	BUILDING
AZ7980	AIRPORT TERMINAL BUILDING - SHOW LOW	NA	L	09	3401 E AIRPORT LOOP	SHOW LOW	AZ	85901	34.2637776	-110.0062286	"1,050.00"	0.00	1981	0401	DAVID SCHWEIKERT	Active	BUILDING
AZ8005	6431 SO. COUNTRY CLUB	NA	L	09	6431 S COUNTRY CLUB RD	TUCSON	AZ	85706	32.1354500	-110.9250010	"26,375.00"	0.00	1998	0403	RUBEN GALLEGO	Active	BUILDING
AZ8031	4370 S FREMONT AVE	NA	L	09	4370 S FREMONT AVE	TUCSON	AZ	85714	32.1727000	-110.9556510	"16,093.00"	0.00	1980	0403	RUBEN GALLEGO	Active	BUILDING
AZ8036	"MAIN ST, TUBA CITY"	NA	L	09	MAIN ST	TUBA CITY	AZ	86045	36.1242244	-111.2351014	"2,780.00"	0.00	2001	0401	DAVID SCHWEIKERT	Active	BUILDING
AZ8045	WEST AMERICAN AVENUE	NA	L	09	1605 W AMERICAN AVE	ORACLE	AZ	85623	32.6180430	-110.7909045	"3,973.00"	0.00	1998	0401	DAVID SCHWEIKERT	Active	BUILDING
AZ8063	345 RIVER RUN	NA	L	09	345 S RIVER RUN RD	FLAGSTAFF	AZ	86001	35.1906903	-111.6378684	"5,241.00"	0.00	2005	0401	DAVID SCHWEIKERT	Active	BUILDING
AZ8092	GATEWAY CENTER - TUCSON	NA	L	09	7373 E ROSEWOOD ST	TUCSON	AZ	85710	32.2327700	-110.8354710	"26,268.00"	0.00	1995	0402	ELIJAH CRANE	Active	BUILDING
AZ8101	1405 E. ASH STREET	NA	L	09	1405 E ASH ST	GLOBE	AZ	85501	33.3963600	-110.7726210	"3,770.00"	0.00	2010	0401	DAVID SCHWEIKERT	Active	BUILDING
AZ8147	18444 NORTH 25TH AVENUE	NA	L	09	18444 N 25TH AVE	PHOENIX	AZ	85023	33.6533000	-112.1130410	"16,623.00"	0.00	1981	0406	JUAN CISCOMANI	Active	BUILDING
AZ8164	ADOT VEHICLE INSPECTION FACILI	NA	L	09	S AVENUE E	SAN LUIS	AZ	85349	32.4721663	-114.7005620	"5,304.00"	0.00	2009	0403	RUBEN GALLEGO	Active	BUILDING
AZ8169	PROMED	NA	L	09	2270 S RIDGEVIEW DR	YUMA	AZ	85364	32.6860200	-114.6386010	"6,759.00"	0.00	2006	0403	RUBEN GALLEGO	Active	BUILDING
AZ8185	3253 3201 EAST UNIVERSAL WAY	NA	L	09	3201 E UNIVERSAL WAY	TUCSON	AZ	85756	32.1325817	-110.9244264	"14,130.00"	0.00		0403	RUBEN GALLEGO	Active	BUILDING
AZ8201	SIERRA BRAVO	NA	L	09	2255 W INA RD	TUCSON	AZ	85741	32.3371499	-111.0147994	"15,922.00"	0.00	2010	0402	ELIJAH CRANE	Active	BUILDING
AZ8217	DEA TUCSON BUILDING	NA	L	09	6970 S PALO VERDE RD	TUCSON	AZ	85756	32.1256200	-110.9177710	"63,501.00"	0.00		0403	RUBEN GALLEGO	Active	BUILDING
AZ8231	GLENDALE CORPORATE CENTER	NA	L	09	5365 N 99TH AVE	GLENDALE	AZ	85305	33.5134500	-112.2717210	"16,632.00"	0.00	2006	0408	DEBBIE LESKO	Active	BUILDING
AZ8232	7101 EAST 29TH STREET	NA	L	09	7101 E 29TH ST	YUMA	AZ	85365	32.6751300	-114.5112510	"14,218.00"	0.00	2008	0404	GREG STANTON	Active	BUILDING
AZ8246	SHADOW RIDGE RV RESORT	NA	L	09	431 N 2ND AVE	AJO	AZ	85321	32.3754900	-112.8730810	0.00	0.00	2010	0403	RUBEN GALLEGO	Active	LAND
AZ8259	2800 N. CENTRAL AVENUE	NA	L	09	2800 N CENTRAL AVE	PHOENIX	AZ	85004	33.4787700	-112.0744910	"29,818.00"	0.00		0407	RAÚL M. GRIJALVA	Active	BUILDING
AZ8269	YUMA COMMERCE CENTER	NA	L	09	7016 E 30TH ST	YUMA	AZ	85365	32.6743000	-114.5121910	"8,747.00"	0.00	2007	0404	GREG STANTON	Active	BUILDING
AZ8302	PORTICO PLACE OFFICE BLD	NA	L	09	2121 W CHANDLER BLVD	CHANDLER	AZ	85224	33.3051200	-111.8794310	"4,537.00"	0.00	2000	0409	PAUL A. GOSAR	Active	BUILDING
AZ8308	333 EAST WETMORE ROAD	NA	L	09	333 E WETMORE RD	TUCSON	AZ	85705	32.2879100	-110.9669110	"8,798.00"	0.00		0402	ELIJAH CRANE	Active	BUILDING
AZ8316	4475 SOUTH COACH DRIVE	NA	L	09	4475 S COACH DR	TUCSON	AZ	85714	32.1712400	-110.9168510	"17,064.00"	0.00		0403	RUBEN GALLEGO	Active	BUILDING
AZ8319	ICE BUILDING - RIO RICO	NA	L	09	41 PASEO DE YUCATAN	RIO RICO	AZ	85648	31.4346330	-110.9676420	"24,152.00"	0.00		0403	RUBEN GALLEGO	Active	BUILDING
AZ8320	FWS BUILDING	NA	L	09	57 PASEO DE YUCATAN	RIO RICO	AZ	85648	31.4339760	-110.9678985	"5,361.00"	0.00		0403	RUBEN GALLEGO	Active	BUILDING
AZ8325	2995 S PACIFIC AVE IBWC YUMA	NA	L	09	2995 S PACIFIC AVE	YUMA	AZ	85365	32.6733000	-114.5981210	"2,289.00"	0.00		0404	GREG STANTON	Active	BUILDING
AZ8333	FIESTA SQUARE	NA	L	09	1220 S ALMA SCHOOL RD	MESA	AZ	85210	33.3925600	-111.8580810	"1,946.00"	0.00		0409	PAUL A. GOSAR	Active	BUILDING
AZ8341	5710 W CHANDLER BLVD	NA	L	09	5710 W CHANDLER BLVD	CHANDLER	AZ	85226	33.3075300	-111.9407010	"39,431.00"	0.00		0409	PAUL A. GOSAR	Active	BUILDING
AZ8357	DIABLO BUSINESS CENTER	NA	L	09	3640 E WIER AVE	PHOENIX	AZ	85040	33.4035788	-112.0023646	"11,621.00"	0.00		0407	RAÚL M. GRIJALVA	Active	BUILDING
AZ8376	FOREST MEADOWS OFFICE BUILDING	NA	L	09	1338 W FOREST MEADOWS ST	FLAGSTAFF	AZ	86001	35.1848700	-111.6711810	817.00	0.00		0401	DAVID SCHWEIKERT	Active	BUILDING
AZ8389	6755 E HIGHWAY 90	NA	L	09	6755 E HIGHWAY 90	SIERRA VISTA	AZ	85635	31.5550700	-110.2075210	"8,411.00"	0.00		0402	ELIJAH CRANE	Active	BUILDING
AZ8398	2197 S. 4TH AVENUE	NA	L	09	2197 S 4TH AVE	YUMA	AZ	85364	32.6879600	-114.6240810	"4,541.00"	0.00		0403	RUBEN GALLEGO	Active	BUILDING
AZ8399	325 W. 19TH STREET	NA	L	09	325 W 19TH ST	YUMA	AZ	85364	32.6926500	-114.6231610	"8,429.00"	0.00	2013	0403	RUBEN GALLEGO	Active	BUILDING
AZ8410	4400 EAST BROADWAY BLVD	NA	L	09	4400 E BROADWAY BLVD	TUCSON	AZ	85711	32.2207600	-110.8979910	"2,862.00"	0.00		0402	ELIJAH CRANE	Active	BUILDING
AZ8415	1608 STOCKTON HILL ROAD	NA	L	09	1608 STOCKTON HILL RD	KINGMAN	AZ	86401	35.2025500	-114.0327710	"2,638.00"	0.00		0404	GREG STANTON	Active	BUILDING
AZ8429	MONUMENT PLAZA	NA	L	09	1637 E MONUMENT PLAZA CIR	CASA GRANDE	AZ	85122	32.8856200	-111.7180410	"5,616.00"	0.00		0401	DAVID SCHWEIKERT	Active	BUILDING
AZ8431	6692 MEMORIAL PLACE	NA	L	09	6692 S MEMORIAL PL	TUCSON	AZ	85756	32.1308700	-110.8513810	"40,500.00"	0.00		0402	ELIJAH CRANE	Active	BUILDING
AZ8437	1785 KIOWA AVENUE	NA	L	09	1785 KIOWA AVE	LAKE HAVASU CITY	AZ	86403	34.5030230	-114.3509950	"13,563.00"	0.00		0404	GREG STANTON	Active	BUILDING
AZ8440	BLM-7341	NA	L	09	7341 E 30TH ST	YUMA	AZ	85365	32.6730200	-114.5070510	"15,569.00"	0.00		0404	GREG STANTON	Active	BUILDING
AZ8477	ICE SCOTTSDALE	NA	L	09	14641 N 74TH ST	SCOTTSDALE	AZ	85260	33.6187440	-111.9203505	"52,004.00"	0.00		0406	JUAN CISCOMANI	Active	BUILDING
AZ8485	US DAJ DRUG ENFORCEMENT ADMINISTRATION	NA	L	09	1283 W FRONTAGE RD	RIO RICO	AZ	85648	31.4893440	-111.0063195	"9,001.00"	0.00		0403	RUBEN GALLEGO	Active	BUILDING
AZ8490	CASA GRANDE PROFESSIONAL CENTER	NA	L	09	440 N CAMINO MERCADO	CASA GRANDE	AZ	85122	32.8774050	-111.6902340	"6,457.00"	0.00		0401	DAVID SCHWEIKERT	Active	BUILDING
AZ8499	930 NORTH SWITZER CANYON DRIVE	NA	L	09	930 N SWITZER CANYON DR	FLAGSTAFF	AZ	86001	35.2057590	-111.6421830	"3,991.00"	0.00		0401	DAVID SCHWEIKERT	Active	BUILDING
AZ8523	1585 S PLAZA WAY	NA	L	09	1585 S PLAZA WAY	FLAGSTAFF	AZ	86001	35.1865980	-111.6664155	"5,089.00"	0.00		0401	DAVID SCHWEIKERT	Active	BUILDING
AZ8531	PALM CENTER PLAZA	NA	L	09	520 N CAMINO MERCADO	CASA GRANDE	AZ	85122	32.8741490	-111.6910453	"1,230.00"	0.00		0401	DAVID SCHWEIKERT	Active	BUILDING
CA0041	US COURT HOUSE	NA	F	09	312 N SPRING ST	LOS ANGELES	CA	90012	34.0551600	-118.2415110	"7,49,037.34"	"2,75,275.56"	1940	0634	JIMMY GOMEZ	Active	BUILDING
CA0083	FEDERAL BUILDING - 801 I ST.	NA	F	09	801 I ST	SACRAMENTO	CA	95814	38.5823500	-121.4948210	"1,60,718.38"	"41,560.72"	1933	0606	AMI BERA	Active	BUILDING
CA0088	J. WEINBERGER COURTHOUSE	NA	F	09	325 W F ST	SAN DIEGO	CA	92101	32.7130500	-117.1660410	"63,756.52"	0.00	1913	0652	JUAN VARGAS	Active	BUILDING
CA0091	APPRAISERS BLDG	APPRAISAL FED CTR	F	09	630 SANSOME ST	SAN FRANCISCO	CA	94111	37.7962300	-122.4014410	"4,34,402.50"	"11,308.65"	1944	0612	BARBARA LEE	Active	BUILDING
CA0092	US CUSTOM HOUSE - SF	APPRAISAL FED CTR	F	09	555 BATTERY ST	SAN FRANCISCO	CA	94111	37.7962900	-122.4009410	"1,26,654.97"	"32,840.26"	1911	0612	BARBARA LEE	Active	BUILDING
CA0093	FEDERAL OFFICE BLDG - 50 UNP	NA	F	09	50 UNITED NATIONS PLZ	SAN FRANCISCO	CA	94102	37.7798947	-122.4139871	"3,02,772.45"	"9,410.73"	1936	0612	BARBARA LEE	Active	BUILDING
CA0096	JAMES R. BROWNING U.S. CRTHSE	NA	F	09	95 7TH ST	SAN FRANCISCO	CA	94103	37.7798220	-122.4112500	"3,12,319.40"	0.00	1905	0612	BARBARA LEE	Active	BUILDING
CA0149	FEDERAL BUILDING - 1340 W 6TH ST.	NA	F	09	1340 W 6TH ST	LOS ANGELES	CA	90017	34.0557700	-118.2670610	"45,648.86"	0.00	1955	0634	JIMMY GOMEZ	Active	BUILDING
CA0150	FEDERAL BUILDING - 300 N LA	LOS ANGELES FED CTR	F	09	300 N LOS ANGELES ST	LOS ANGELES	CA	90012	34.0534000	-118.2400610	"10,57,293.29"	"24,504.74"	1965	0634	JIMMY GOMEZ	Active	BUILDING
CA0152	JOHN E. MOSS FEDERAL BUILDING	NA	F	09	650 CAPITOL MALL	SACRAMENTO	CA	95814	38.5776600	-121.4999310	"3,27,737.48"	"30,116.35"	1961	0606	AMI BERA	Active	BUILDING
CA0154	"PHILLIP BURTON,FB CT"	NA	F	09	450 GOLDEN GATE AVE	SAN FRANCISCO	CA	94102	37.7818100	-122.4180610	"12,44,569.50"	"53,181.65"	1964	0612	BARBARA LEE	Active	BUILDING
CA0167	EDWARD J. SCHWARTZ FOB & CTHS	NA	F	09	880 FRONT ST	SAN DIEGO	CA	92101	32.7144500	-117.1648510	"6,27,880.19"	"26,481.24"	1976	0652	JUAN VARGAS	Active	BUILDING
CA0168	FEDERAL BUILDING - 11000 WILSHIRE	NA	F	09	11000 WILSHIRE BLVD	LOS ANGELES	CA	90024	34.0577021	-118.4477577	"5,11,268.91"	"41,579.50"	1969	0633	PETE AGUILAR	Active	BUILDING
CA0180	USPO & FED BLDG - BLYTHE	NA	L	09	200 E MURPHY ST	BLYTHE	CA	92225	33.6121963	-114.5954094	980.00	0.00	1965	0636	TED LIEU	Active	BUILDING
CA0185	SSA BUILDING - PASADENA	NA	F	09	104 N MENTOR AVE	PASADENA	CA	91106	34.1476387	-118.1307823	"12,805.15"	0.00	1975	0627	MIKE GARCIA	Active	BUILDING
CA0194	SSA BUILDING - HUNTINGTON PARK	NA	F	09	6303 RUGBY AVE	HUNTINGTON PARK	CA	90255	33.9834381	-118.2266341	"22,952.14"	0.00	1969	0640	YOUNG KIM	Active	BUILDING
CA0198	JAMES C. CORMAN FED BLDG	NA	F	09	6230 VAN NUYS BLVD	VAN NUYS	CA	91401	34.1833800	-118.4482710	"1,29,859.24"	"22,608.92"	1974	0629	TONY CÁRDENAS	Active	BUILDING
CA0199	FEDERAL BUILDING - 2800 COTTAGE WAY	COTTAGE WAY COMPLEX	F	09	2800 COTTAGE WAY	SACRAMENTO	CA	95825	38.6014600	-121.3979510	"3,05,717.34"	0.00	1967	0607	DORIS O. MATSUI	Active	BUILDING
CA0200	FEDERAL BUILDING - SANTA ANA	NA	F	09	34 CIVIC CENTER PLZ	SANTA ANA	CA	92701	33.7484800	-117.8751010	"2,05,344.49"	0.00	1975	0646	J. LUIS CORREA	Active	BUILDING
CA0213	FRANK HAGEL FEDERAL BUILDING	NA	F	09	1221 NEVIN AVE	RICHMOND	CA	94801	37.9376300	-122.3579610	"5,34,599.33"	0.00	1975	0611	NANCY PELOSI	Active	BUILDING
CA0221	JOHN F SHEA FED BLDG	NA	F	09	777 SONOMA AVE	SANTA ROSA	CA	95404	38.4389100	-122.7095910	"70,477.49"	"7,481.98"	1975	0605	TOM MCCLINTOCK	Active	BUILDING
CA0235	LEO J. RYAN FEDERAL RECORDS CR	NA	F	09	1000 COMMODORE DR	SAN BRUNO	CA	94066	37.6321077	-122.4239298	"2,27,836.68"	0.00	1972	0614	ERIC SWALWELL	Active	BUILDING
CA0239	FED BLDG SHOP	COTTAGE WAY COMPLEX	F	09	2800 COTTAGE WAY	SACRAMENTO	CA	95825	38.6014600	-121.3979510	"5,106.24"	430.46	1968	0607	DORIS O. MATSUI	Active	BUILDING
CA0260	ROBERT F. PECKHAM FB & CH	NA	F	09	280 S 1ST ST	SAN JOSE	CA	95113	37.3324526	-121.8877310	"2,31,450.94"	"3,528.26"	1982	0619	JIMMY PANETTA	Active	BUILDING
CA0267	OMLPOE MAIN BLDG & PRIMARY INSPECTION	OTAY MESA LPOE	F	09	2500 PASEO INTERNACIONAL	SAN DIEGO	CA	92154	32.5527150	-116.9390847	"43,461.45"	0.00	1984	0651	SARA JACOBS	Active	BUILDING
CA0268	OMLPOE HEADHOUSE & SECONDARY INSPECTION	OTAY MESA LPOE	F	09	9777 VIA DE LA AMISTAD	SAN DIEGO	CA	92154	32.5528726	-116.9357001	"52,587.44"	0.00	1984	0651	SARA JACOBS	Active	BUILDING
CA0269	OMLPOE COMMERCIAL EXPORT INSPECTION	OTAY MESA LPOE	F	09	9777 VIA DE LA AMISTAD	SAN DIEGO	CA	92154	32.5528726	-116.9357001	"69,839.12"	0.00	1984	0651	SARA JACOBS	Active	BUILDING
CA0272	PARKING GARAGE - 1260 S SEPULVEDA	NA	F	09	1260 S SEPULVEDA BLVD	LOS ANGELES	CA	90025	34.0554308	-118.4509150	"52,773.61"	0.00	1982	0633	PETE AGUILAR	Active	STRUCTURE
CA0273	GLENN M ANDERSON FED BLDG	NA	F	09	501 W OCEAN BLVD	LONG BEACH	CA	90802	33.7677200	-118.1987310	"2,38,769.52"	"4,562.44"	1989	0647	KATIE PORTER	Active	BUILDING
CA0281	RONALD DELLUMS FED BLDG	NA	F	09	1301 CLAY ST	OAKLAND	CA	94612	37.8048100	-122.2746110	"9,03,309.63"	"87,707.98"	1993	0613	JOHN S. DUARTE	Active	BUILDING
CA0283	EDWARD R ROYBAL FB & CH	LOS ANGELES FED CTR	F	09	255 E TEMPLE ST	LOS ANGELES	CA	90012	34.0528400	-118.2392610	"7,63,256.15"	"27,156.21"	1993	0634	JIMMY GOMEZ	Active	BUILDING
CA0288	OMLPOE NII GANTRY BLDG	OTAY MESA LPOE	F	09	9777 VIA DE LA AMISTAD	SAN DIEGO	CA	92154	32.5518700	-116.9357210	"5,579.59"	0.00	2012	0651	SARA JACOBS	Active	BUILDING
CA0289	OMLPOE SECONDARY COMMERCIAL IMPORT INSPECTION	OTAY MESA LPOE	F	09	9777 VIA DE LA AMISTAD	SAN DIEGO	CA	92154	32.5528726	-116.9357001	"1,47,987.18"	0.00	1994	0651	SARA JACOBS	Active	BUILDING
CA0295	RONALD REAGAN FB & CH	NA	F	09	411 W 4TH ST	SANTA ANA	CA	92701	33.7484800	-117.8711710	"5,15,220.87"	"39,175.09"	1999	0646	J. LUIS CORREA	Active	BUILDING
CA0297	CHILDCARE CENTER	COTTAGE WAY COMPLEX	F	09	2800 COTTAGE WAY	SACRAMENTO	CA	95825	38.6014600	-121.3979510	"9,304.11"	0.00	1995	0607	DORIS O. MATSUI	Active	BUILDING
CA0299	OMLPOE CRT (CRITICAL RESPONSE TEAM)	OTAY MESA LPOE	F	09	9777 VIA DE LA AMISTAD	SAN DIEGO	CA	92154	32.5518700	-116.9357210	"1,825.43"	0.00	1994	0651	SARA JACOBS	Active	BUILDING
CA0301	OMLPOE SEIZURE VAULT	OTAY MESA LPOE	F	09	9777 VIA DE LA AMISTAD	SAN DIEGO	CA	92154	32.5528726	-116.9357001	"9,295.75"	0.00	1994	0651	SARA JACOBS	Active	BUILDING
CA0305	SAN FRANCISCO FEDERAL BLDG	NA	F	09	90 7TH ST	SAN FRANCISCO	CA	94103	37.7794500	-122.4116610	"5,21,278.56"	"83,568.20"	2007	0612	BARBARA LEE	Active	BUILDING
CA0306	ROBERT T MATSUI US COURTHOUSE	NA	F	09	501 I ST	SACRAMENTO	CA	95814	38.5835500	-121.4987410	"5,49,681.67"	"19,763.13"	1999	0606	AMI BERA	Active	BUILDING
CA0309	ROBERT E. COYLE FEDERAL COURT	NA	F	09	2500 TULARE ST	FRESNO	CA	93721	36.7375200	-119.7846710	"3,92,763.30"	0.00	2005	0616	ANNA G. ESHOO	Active	BUILDING
CA0316	JAMES M. CARTER & JUDITH N. KEEP U. S. COURTHOUSE	NA	F	09	333 W BROADWAY	SAN DIEGO	CA	92101	32.7152000	-117.1661210	"3,97,567.79"	0.00	2012	0652	JUAN VARGAS	Active	BUILDING
CA0323	LOS ANGELES FEDERAL COURTHOUSE	NA	F	09	350 W 1ST ST	LOS ANGELES	CA	90012	34.0539133	-118.2460969	"5,29,454.27"	"2,318.80"	2016	0634	JIMMY GOMEZ	Active	BUILDING
CA0335	SYLPOE NB PRIMARY INSPECTION	SAN YSIDRO LPOE	F	09	795 E SAN YSIDRO BLVD	SAN YSIDRO	CA	92173	32.5436700	-117.0286610	"43,181.83"	0.00	2014	0651	SARA JACOBS	Active	BUILDING
CA0337	SYLPOE NB HEADHOUSE & SECONDARY	SAN YSIDRO LPOE	F	09	795 E SAN YSIDRO BLVD	SAN YSIDRO	CA	92173	32.5436700	-117.0286610	"1,48,038.56"	0.00	2014	0651	SARA JACOBS	Active	BUILDING
CA0340	SYLPOE NARCOTICS/SEIZURE BLDG	SAN YSIDRO LPOE	F	09	795 E SAN YSIDRO BLVD	SAN YSIDRO	CA	92173	32.5435950	-117.0288321	"6,294.12"	0.00	2014	0651	SARA JACOBS	Active	BUILDING
CA0341	SYLPOE WEST PEDESTRIAN CROSSING	SAN YSIDRO LPOE	F	09	495 VIRGINIA AVE	SAN YSIDRO	CA	92173	32.5421914	-117.0364049	"22,833.50"	0.00	2016	0651	SARA JACOBS	Active	BUILDING
CA0342	SYLPOE SOUTHBOUND PRIMARY VEHICLE INSPECTION	SAN YSIDRO LPOE	F	09	5715 CAMIONES WAY	SAN YSIDRO	CA	92173	32.5426500	-117.0338510	"3,131.56"	0.00	2019	0651	SARA JACOBS	Active	BUILDING
CA0343	SYLPOE SB HEAD HOUSE AND SECONDARY INSPECTION	SAN YSIDRO LPOE	F	09	5715 CAMIONES WAY	SAN YSIDRO	CA	92173	32.5426500	-117.0338510	"21,483.43"	0.00	2019	0651	SARA JACOBS	Active	BUILDING
CA0344	SAN YSIDRO LPOE EMPLOYEE PARKING STRUCTURE	SAN YSIDRO LPOE	F	09	5765 CAMIONES WAY	SAN YSIDRO	CA	92173	32.5425500	-117.0327010	"5,460.23"	0.00	2019	0651	SARA JACOBS	Active	STRUCTURE
CA0345	SAN YSIDRO LPOE EAST PEDESTRIAN BUILDING	SAN YSIDRO LPOE	F	09	720 E SAN YSIDRO BLVD	SAN YSIDRO	CA	92173	32.5449441	-117.0299313	"92,120.39"	0.00	2018	0651	SARA JACOBS	Active	BUILDING
CA0347	OMLPOE COMMERCIAL ANNEX BUILDING (CAB)	OTAY MESA LPOE	F	09	9725 VIA DE LA AMISTAD	SAN DIEGO	CA	92154	32.5528472	-116.9362272	"34,090.53"	0.00	2022	0651	SARA JACOBS	Active	BUILDING
CA0363	US COURTHOUSE - BAKERSFIELD	NA	F	09	510 19TH ST	BAKERSFIELD	CA	93301	35.3762190	-119.0072790	"31,871.21"	0.00	2012	0623	JAY OBERNOLTE	Active	BUILDING
CA0364	BS SEIZURE VAULT	CALEXICO EAST LPOE	F	09	1699 CARR RD	CALEXICO	CA	92231	32.6797848	-115.3827861	655.84	0.00	2009	0651	SARA JACOBS	Active	BUILDING
CA0370	OMLPOE COMMERCIAL HAZMAT INSPECTION	OTAY MESA LPOE	F	09	VIA DE LA AMISTAD	SAN DIEGO	CA	92154	32.5529250	-116.9358680	"11,648.34"	0.00	2022	0651	SARA JACOBS	Active	BUILDING
CA0371	OMLPOE COMMERCIAL PRIMARY INSPECTION & EXIT BOOTHS	OTAY MESA LPOE	F	09	VIA DE LA AMISTAD	SAN DIEGO	CA	92154	32.5529250	-116.9358680	"17,875.30"	0.00	2022	0651	SARA JACOBS	Active	BUILDING
CA0372	OMLPOE STRUCTURED PARKING	OTAY MESA LPOE	F	09	9777 VIA DE LA AMISTAD	SAN DIEGO	CA	92154	32.5518750	-116.9357220	349.65	0.00	2022	0651	SARA JACOBS	Active	BUILDING
CA0373	OMLPOE FMCSA INSPECTION	OTAY MESA LPOE	F	09	9675 VIA DE LA AMISTAD	SAN DIEGO	CA	92154	32.5528422	-116.9366836	"4,218.09"	0.00	2022	0651	SARA JACOBS	Active	BUILDING
CA0377	OMLPOE USDA PLANT INSPECTION BLDG	OTAY MESA LPOE	F	09	9795 VIA DE LA AMISTAD	SAN DIEGO	CA	92154	32.5528302	-116.9350958	"11,688.66"	0.00	2022	0651	SARA JACOBS	Active	BUILDING
CA0501	CWLPOE HISTORIC CUSTOM HOUSE	CALEXICO WEST LPOE	F	09	23 HEFFERNAN AVE	CALEXICO	CA	92231	32.6652700	-115.4952110	"5,291.26"	0.00	1933	0651	SARA JACOBS	Active	BUILDING
CA0505	BS MAIN BLDG	CALEXICO WEST LPOE	F	09	200 E 1ST ST	CALEXICO	CA	92231	32.6655572	-115.4962554	"90,848.94"	0.00	1974	0651	SARA JACOBS	Active	BUILDING
CA0507	CALEXICO EAST MAIN BLDG.	CALEXICO EAST LPOE	F	09	1699 CARR RD	CALEXICO	CA	92231	32.6797848	-115.3827861	"47,462.94"	0.00	1996	0651	SARA JACOBS	Active	BUILDING
CA0508	B.S. HD HOUSE	CALEXICO EAST LPOE	F	09	1699 CARR RD	CALEXICO	CA	92231	32.6797848	-115.3827861	"56,755.37"	0.00	1996	0651	SARA JACOBS	Active	BUILDING
CA0509	B.S. IMPORT/COM. BLDG.	CALEXICO EAST LPOE	F	09	1699 E. CARR RD.	CALEXICO	CA	92231	32.6795629	-115.3804699	"82,002.04"	0.00	1996	0651	SARA JACOBS	Active	BUILDING
CA0510	B.S. BULK/HAZMAT. BLDG.	CALEXICO EAST LPOE	F	09	1699 E. CARR RD.	CALEXICO	CA	92231	32.6795629	-115.3804699	"4,166.92"	0.00	1996	0651	SARA JACOBS	Active	BUILDING
CA0511	B.S. EXPT BLDG.	CALEXICO EAST LPOE	F	09	1699 E. CARR RD.	CALEXICO	CA	92231	32.6795629	-115.3804699	"13,409.83"	0.00	1996	0651	SARA JACOBS	Active	BUILDING
CA0513	B. S. CEN. PLT. BLDG.	CALEXICO EAST LPOE	F	09	1699 E. CARR RD.	CALEXICO	CA	92231	32.6795629	-115.3804699	"1,829.60"	0.00	1996	0651	SARA JACOBS	Active	BUILDING
CA0515	GSA MODULAR BUILDING	COTTAGE WAY COMPLEX	F	09	2800 COTTAGE WAY	SACRAMENTO	CA	95825	38.6014600	-121.3979510	"3,922.18"	895.13	1999	0607	DORIS O. MATSUI	Active	BUILDING
CA0516	MODULAR BUILDING -FDA	CALEXICO EAST LPOE	F	09	1699 CARR RD	CALEXICO	CA	92231	32.6797665	-115.3828240	"1,056.00"	0.00	1993	0651	SARA JACOBS	Active	BUILDING
CA0518	CALEXICO WEST LPOE PRIMARY INSPECTION	CALEXICO WEST LPOE	F	09	200 E 1ST ST	CALEXICO	CA	92231	32.6655837	-115.4961916	"11,631.46"	0.00	2018	0651	SARA JACOBS	Active	BUILDING
CA0519	CALEXICO WEST LPOE HEADHOUSE & SECONDARY	CALEXICO WEST LPOE	F	09	200 E 1ST ST	CALEXICO	CA	92231	32.6655837	-115.4961916	"75,894.08"	0.00	2018	0651	SARA JACOBS	Active	BUILDING
CA0521	CHET HOLIFIELD FED BLDG	LAGUNA NIGUEL F CTR	F	09	24000 AVILA RD	LAGUNA NIGUEL	CA	92677	33.5629800	-117.7112710	"10,03,646.71"	"2,05,312.82"	1971	0648	DARRELL ISSA	Active	BUILDING
CA0522	SERVICES SUPPORT BUILDING	LAGUNA NIGUEL F CTR	F	09	24000 AVILA RD	LAGUNA NIGUEL	CA	92677	33.5629800	-117.7112710	"12,242.76"	0.00	1971	0648	DARRELL ISSA	Active	BUILDING
CA0523	ENERGY STATION	LAGUNA NIGUEL F CTR	F	09	24000 AVILA RD	LAGUNA NIGUEL	CA	92677	33.5629800	-117.7112710	"9,028.56"	0.00	1971	0648	DARRELL ISSA	Active	BUILDING
CA0524	GUARD HOUSE NO 1	LAGUNA NIGUEL F CTR	F	09	24000 AVILA RD	LAGUNA NIGUEL	CA	92677	33.5629800	-117.7112710	74.10	0.00	1971	0648	DARRELL ISSA	Active	BUILDING
CA0525	GUARD HOUSE NO 2	LAGUNA NIGUEL F CTR	F	09	24000 AVILA RD	LAGUNA NIGUEL	CA	92677	33.5629800	-117.7112710	67.81	0.00	1971	0648	DARRELL ISSA	Active	BUILDING
CA0526	WATER COOLING TOWER	LAGUNA NIGUEL F CTR	F	09	24000 AVILA RD	LAGUNA NIGUEL	CA	92677	33.5629800	-117.7112710	"7,370.00"	0.00	1971	0648	DARRELL ISSA	Active	BUILDING
CA0527	WATER RESERVOIR	LAGUNA NIGUEL F CTR	F	09	24000 AVILA RD	LAGUNA NIGUEL	CA	92677	33.5629800	-117.7112710	546.67	0.00	1971	0648	DARRELL ISSA	Active	BUILDING
CA0540	CE NON-INTRUSIVE INSPECTION GANTRY (NII)	CALEXICO EAST LPOE	F	09	1699 E. CARR RD.	CALEXICO	CA	92231	32.6797848	-115.3827861	"5,575.46"	0.00	2013	0651	SARA JACOBS	Active	BUILDING
CA0581	SYLPOE HISTORICAL CUSTOMS HSE	SAN YSIDRO LPOE	F	09	801 E SAN YSIDRO BLVD	SAN YSIDRO	CA	92173	32.5438910	-117.0291522	"20,285.68"	0.00	1932	0651	SARA JACOBS	Active	BUILDING
CA0621	MAIN BLDG - ANDRADE LPOE	ANDRADE LPOE	F	09	235 ANDRADE RD	WINTERHAVEN	CA	92283	32.7184304	-114.7282113	"6,679.98"	0.00	1958	0651	SARA JACOBS	Active	BUILDING
CA0622	ANDRADE LPOE ADMINISTRATIVE BUILDING	ANDRADE LPOE	F	09	235 ANDRADE RD	WINTERHAVEN	CA	92283	32.7184309	-114.7281619	"3,215.59"	0.00	1958	0651	SARA JACOBS	Active	BUILDING
CA0623	ANDRADE LPOE TRAINING BUILDING	ANDRADE LPOE	F	09	235 ANDRADE RD	WINTERHAVEN	CA	92283	32.7184309	-114.7281619	"1,302.36"	0.00	1958	0651	SARA JACOBS	Active	BUILDING
CA0624	ANDRADE HEADHOUSE - ANDRADE LPOE	ANDRADE LPOE	F	09	235 ANDRADE RD	WINTERHAVEN	CA	92283	32.7184427	-114.7281959	442.36	0.00	2014	0651	SARA JACOBS	Active	BUILDING
CA0761	FED CNTR BLDG 1	ALAMEDA FED CTR	F	09	620 CENTRAL AVE	ALAMEDA	CA	94501	37.7715630	-122.2790359	"25,697.49"	"26,529.33"	1942	0613	JOHN S. DUARTE	Excess	BUILDING
CA0762	FEDERAL CNTR BLDG 2A	ALAMEDA FED CTR	F	09	620 CENTRAL AVE	ALAMEDA	CA	94501	37.7715630	-122.2790359	"8,219.30"	"8,476.83"	1942	0613	JOHN S. DUARTE	Excess	BUILDING
CA0763	FEDERAL CNTR BLDG 2B	ALAMEDA FED CTR	F	09	620 CENTRAL AVE	ALAMEDA	CA	94501	37.7714218	-122.2787317	"8,327.88"	"8,586.02"	1942	0613	JOHN S. DUARTE	Excess	BUILDING
CA0765	FEDERAL CNTR BLDG 2C	ALAMEDA FED CTR	F	09	620 CENTRAL AVE	ALAMEDA	CA	94501	37.7715630	-122.2790359	"8,479.12"	"8,750.20"	1942	0613	JOHN S. DUARTE	Excess	BUILDING
CA0773	FED CNTR BLDG 2D	ALAMEDA FED CTR	F	09	620 CENTRAL AVE	ALAMEDA	CA	94501	37.7714218	-122.2787317	"23,734.05"	"22,049.37"	1942	0613	JOHN S. DUARTE	Excess	BUILDING
CA0774	BLDG 8	ALAMEDA FED CTR	F	09	620 CENTRAL AVE	ALAMEDA	CA	94501	37.7718800	-122.2786900	758.10	792.30	1942	0613	JOHN S. DUARTE	Excess	BUILDING
CA0775	BUILDING 10	ALAMEDA FED CTR	F	09	620 CENTRAL AVE.	ALAMEDA	CA	94501	37.7715630	-122.2790359	707.10	739.00	1942	0613	JOHN S. DUARTE	Excess	BUILDING
CA0776	FEDERAL CNTR BLDG 9	ALAMEDA FED CTR	F	09	620 CENTRAL AVE	ALAMEDA	CA	94501	37.7718800	-122.2786900	222.72	0.00	1942	0613	JOHN S. DUARTE	Excess	BUILDING
CA0777	FEDERAL CNTR BLDG 12	ALAMEDA FED CTR	F	09	620 CENTRAL AVE	ALAMEDA	CA	94501	37.7715630	-122.2790359	628.21	0.00	1942	0613	JOHN S. DUARTE	Excess	BUILDING
CA0779	BLDG. 13; ELEVATOR SVCS. SUPP.	ALAMEDA FED CTR	F	09	620 CENTRAL AVE	ALAMEDA	CA	94501	37.7715630	-122.2790359	58.60	0.00	1942	0613	JOHN S. DUARTE	Excess	BUILDING
CA0801	TECATE LPOE MAIN BLDG	TECATE LPOE	F	09	405 TECATE RD	TECATE	CA	91980	32.5769074	-116.6275438	"16,506.09"	0.00	1934	0651	SARA JACOBS	Active	BUILDING
CA0802	TECATE LPOE RESIDENCE 1	TECATE LPOE	F	09	405 TECATE RD	TECATE	CA	91980	32.5769074	-116.6275438	"2,155.22"	0.00	1934	0651	SARA JACOBS	Active	BUILDING
CA0803	TECATE LPOE RESIDENCE 2	TECATE LPOE	F	09	405 TECATE RD	TECATE	CA	91980	32.5769074	-116.6275438	"2,155.22"	0.00	1934	0651	SARA JACOBS	Active	BUILDING
CA0804	TECATE LPOE COMMERCIAL PORT FACILITY	TECATE LPOE	F	09	405 TECATE RD	TECATE	CA	91980	32.5769074	-116.6275438	"15,862.45"	0.00	1983	0651	SARA JACOBS	Active	BUILDING
CA0805	TECATE LPOE HEADHOUSE/PRIMARY/SECONDARY	TECATE LPOE	F	09	405 TECATE RD	TECATE	CA	91980	32.5769074	-116.6275438	"12,512.87"	0.00	2005	0651	SARA JACOBS	Active	BUILDING
CA0901	GSA BLDG 1 - MENLO PARK	345 MIDDLEFIELD RD	F	09	345 MIDDLEFIELD RD	MENLO PARK	CA	94025	37.4563800	-122.1713010	"41,051.64"	"39,229.63"	1953	0618	ZOE LOFGREN	Active	BUILDING
CA0902	GSA BLDG 2	345 MIDDLEFIELD RD	F	09	345 MIDDLEFIELD RD	MENLO PARK	CA	94025	37.4563800	-122.1713010	"44,084.73"	0.00	1956	0618	ZOE LOFGREN	Active	BUILDING
CA0903	USGS BLDG 3	345 MIDDLEFIELD RD	F	09	345 MIDDLEFIELD RD	MENLO PARK	CA	94025	37.4563800	-122.1713010	"90,049.07"	"34,156.68"	1953	0618	ZOE LOFGREN	Active	BUILDING
CA0904	BLDGS 9E	345 MIDDLEFIELD RD	F	09	345 MIDDLEFIELD RD	MENLO PARK	CA	94025	37.4563800	-122.1713010	"2,707.16"	0.00	1980	0618	ZOE LOFGREN	Active	BUILDING
CA0905	USGS BLDG 10	345 MIDDLEFIELD RD	F	09	345 MIDDLEFIELD RD	MENLO PARK	CA	94025	37.4563800	-122.1713010	"1,823.38"	0.00	1975	0618	ZOE LOFGREN	Active	BUILDING
